{"type":"FeatureCollection","crs":{"type":"name","properties":{"name":"EPSG:4326"}},"features":[{"type":"Feature","id":1,"geometry":{"type":"Point","coordinates":[-90.5564000000953,14.5192000004299]},"properties":{"FID":1,"NAME":"IEBC  VILLA HERMOSA","LEVEL_":"CICLO BASICO"}},{"type":"Feature","id":2,"geometry":{"type":"Point","coordinates":[-90.0695000003636,14.8588999996405]},"properties":{"FID":2,"NAME":"INEB CON ORIENTACION OCUPACIONAL","LEVEL_":"CICLO BASICO"}},{"type":"Feature","id":3,"geometry":{"type":"Point","coordinates":[-90.0711000001608,14.8511999996374]},"properties":{"FID":3,"NAME":"INSTITUTO TECNICO INDUSTRIAL MIXTO 'GUASTATOYA'","LEVEL_":"CICLO DIVERSIFICADO"}},{"type":"Feature","id":4,"geometry":{"type":"Point","coordinates":[-90.0695000003636,14.8588999996405]},"properties":{"FID":4,"NAME":"INEB  EXPERIMENTAL CON ORIENTACION OCUPACIONAL","LEVEL_":"CICLO BASICO"}},{"type":"Feature","id":5,"geometry":{"type":"Point","coordinates":[-90.0174000000063,14.8591000000842]},"properties":{"FID":5,"NAME":"IEBC DE ENSE5ANZA 'PROF. EDGAR ENRIQUE PRADO ALDANA'","LEVEL_":"CICLO BASICO"}},{"type":"Feature","id":6,"geometry":{"type":"Point","coordinates":[-90.0666999996982,14.8484999996807]},"properties":{"FID":6,"NAME":"ESCUELA NORMAL DE EDUCACION FISICA","LEVEL_":"CICLO DIVERSIFICADO"}},{"type":"Feature","id":7,"geometry":{"type":"Point","coordinates":[-90.0728999996556,14.8605999996851]},"properties":{"FID":7,"NAME":"ESCUELA NORMAL INTERCULTURAL","LEVEL_":"CICLO DIVERSIFICADO"}},{"type":"Feature","id":8,"geometry":{"type":"Point","coordinates":[-90.1456000002156,14.934400000151]},"properties":{"FID":8,"NAME":"IEBC DE ENSE5ANZA","LEVEL_":"CICLO BASICO"}},{"type":"Feature","id":9,"geometry":{"type":"Point","coordinates":[-90.1002999999163,14.9260000001561]},"properties":{"FID":9,"NAME":"IEBC 'MARAJUMA'","LEVEL_":"CICLO BASICO"}},{"type":"Feature","id":10,"geometry":{"type":"Point","coordinates":[-90.0074000004282,14.9145999998817]},"properties":{"FID":10,"NAME":"IEBC DE ENSE5ANZA","LEVEL_":"CICLO BASICO"}},{"type":"Feature","id":11,"geometry":{"type":"Point","coordinates":[-90.0449000000762,14.9244000002374]},"properties":{"FID":11,"NAME":"NUCLEO FAMILIAR EDUCATIVO PARA EL DESARROLLO NUFED N.4","LEVEL_":"CICLO BASICO"}},{"type":"Feature","id":12,"geometry":{"type":"Point","coordinates":[-90.0771000003993,14.9254000003769]},"properties":{"FID":12,"NAME":"IEBC","LEVEL_":"CICLO BASICO"}},{"type":"Feature","id":13,"geometry":{"type":"Point","coordinates":[-89.9710000003368,14.940399999616]},"properties":{"FID":13,"NAME":"INSTITUTO DIVERSIFICADO DE COOPERATIVA DE ENSEUANZA","LEVEL_":"CICLO DIVERSIFICADO"}},{"type":"Feature","id":14,"geometry":{"type":"Point","coordinates":[-89.9579000002478,14.9985000002378]},"properties":{"FID":14,"NAME":"NUCLEO FAMILIAR EDUCATIVO PARA EL DESARROLLO NUFED NO.14","LEVEL_":"CICLO BASICO"}},{"type":"Feature","id":15,"geometry":{"type":"Point","coordinates":[-89.8715999996652,14.9233000001554]},"properties":{"FID":15,"NAME":"IEBC DE ENSE5ANZA 'JOSE SALOMON MORALES ROMERO'","LEVEL_":"CICLO BASICO"}},{"type":"Feature","id":16,"geometry":{"type":"Point","coordinates":[-89.8889999997029,14.9375000004093]},"properties":{"FID":16,"NAME":"IEBC DE ENSE5ANZA","LEVEL_":"CICLO BASICO"}},{"type":"Feature","id":17,"geometry":{"type":"Point","coordinates":[-89.8964000001945,14.9106999999587]},"properties":{"FID":17,"NAME":"INEB 'JUAN RAMON BRACAMONTE'","LEVEL_":"CICLO BASICO"}},{"type":"Feature","id":18,"geometry":{"type":"Point","coordinates":[-89.960900000415,14.901500000317]},"properties":{"FID":18,"NAME":"IEBC DE ENSE5ANZA","LEVEL_":"CICLO BASICO"}},{"type":"Feature","id":19,"geometry":{"type":"Point","coordinates":[-89.8962999999879,14.9100999999444]},"properties":{"FID":19,"NAME":"INSTITUTO DIVERSIFICADO POR COOPERATIVA","LEVEL_":"CICLO DIVERSIFICADO"}},{"type":"Feature","id":20,"geometry":{"type":"Point","coordinates":[-90.1148000002448,14.7512000003563]},"properties":{"FID":20,"NAME":"INEB","LEVEL_":"CICLO BASICO"}},{"type":"Feature","id":21,"geometry":{"type":"Point","coordinates":[-90.1148000002448,14.7512000003563]},"properties":{"FID":21,"NAME":"INSTITUTO DIVERSIFICADO POR COOPERATIVA SANSARE","LEVEL_":"CICLO DIVERSIFICADO"}},{"type":"Feature","id":22,"geometry":{"type":"Point","coordinates":[-90.1960000001398,14.7876999997244]},"properties":{"FID":22,"NAME":"INEB 'ERNESTO CHAVARRIA RIVADENEYRA'","LEVEL_":"CICLO BASICO"}},{"type":"Feature","id":23,"geometry":{"type":"Point","coordinates":[-90.1576999996199,14.8087000002047]},"properties":{"FID":23,"NAME":"IEBC DE ENSE5ANZA","LEVEL_":"CICLO BASICO"}},{"type":"Feature","id":24,"geometry":{"type":"Point","coordinates":[-90.1960000001398,14.7876999997244]},"properties":{"FID":24,"NAME":"INSTITUTO POR COOPERATIVA 'SANARATE'","LEVEL_":"CICLO DIVERSIFICADO"}},{"type":"Feature","id":25,"geometry":{"type":"Point","coordinates":[-90.2857999996595,14.7592000001477]},"properties":{"FID":25,"NAME":"IEBC DE ENSE5ANZA","LEVEL_":"CICLO BASICO"}},{"type":"Feature","id":26,"geometry":{"type":"Point","coordinates":[-90.2842999996298,14.7610999996102]},"properties":{"FID":26,"NAME":"INSTITUTO DIVERSIFICADA POR COOPERATIVA","LEVEL_":"CICLO DIVERSIFICADO"}},{"type":"Feature","id":27,"geometry":{"type":"Point","coordinates":[-90.3277000001643,14.7465000004353]},"properties":{"FID":27,"NAME":"IEBC","LEVEL_":"CICLO BASICO"}},{"type":"Feature","id":28,"geometry":{"type":"Point","coordinates":[-90.7305000000917,14.5559000003368]},"properties":{"FID":28,"NAME":"INEB NOCTURNO PARA OBREROS","LEVEL_":"CICLO BASICO"}},{"type":"Feature","id":29,"geometry":{"type":"Point","coordinates":[-90.7305000000917,14.5559000003368]},"properties":{"FID":29,"NAME":"ESCUELA NACIONAL DE CIENCIAS COMERCIALES SECCION NOCTURNA","LEVEL_":"CICLO DIVERSIFICADO"}},{"type":"Feature","id":30,"geometry":{"type":"Point","coordinates":[-90.7305000000917,14.5559000003368]},"properties":{"FID":30,"NAME":"INEB ADSC. AL INSTITUTO NORMAL P/SEIORITAS 'OLIMPIA LEAL'","LEVEL_":"CICLO BASICO"}},{"type":"Feature","id":31,"geometry":{"type":"Point","coordinates":[-90.7305000000917,14.5559000003368]},"properties":{"FID":31,"NAME":"INSTITUTO NORMAL P/SE5ORITAS 'OLIMPIA LEAL'","LEVEL_":"CICLO DIVERSIFICADO"}},{"type":"Feature","id":32,"geometry":{"type":"Point","coordinates":[-90.7271000003021,14.5419999996512]},"properties":{"FID":32,"NAME":"IEEB","LEVEL_":"CICLO BASICO"}},{"type":"Feature","id":33,"geometry":{"type":"Point","coordinates":[-90.7271000003021,14.5419999996512]},"properties":{"FID":33,"NAME":"INSTITUTO NORMAL PARA VARONES 'ANTONIO LARRAZABAL'","LEVEL_":"CICLO DIVERSIFICADO"}},{"type":"Feature","id":34,"geometry":{"type":"Point","coordinates":[-90.7271000003021,14.5419999996512]},"properties":{"FID":34,"NAME":"IEEB ANTONIO LARRAZABAL","LEVEL_":"CICLO BASICO"}},{"type":"Feature","id":35,"geometry":{"type":"Point","coordinates":[-90.7258999998162,14.5429000000914]},"properties":{"FID":35,"NAME":"ESCUELA NORMAL DE EDUCACION FISICA","LEVEL_":"CICLO DIVERSIFICADO"}},{"type":"Feature","id":36,"geometry":{"type":"Point","coordinates":[-90.7450999996797,14.5734999996325]},"properties":{"FID":36,"NAME":"IEBC DE ENSE5ANZA","LEVEL_":"CICLO BASICO"}},{"type":"Feature","id":37,"geometry":{"type":"Point","coordinates":[-90.7450999996797,14.5734999996325]},"properties":{"FID":37,"NAME":"INSTITUTO 'TECNICO DIVERSIFICADO PARA SECRETARIADO Y OFICINISTA CON ORIENT. JURIDICA Y BACH. EN TURISMO Y HOTELERIA'","LEVEL_":"CICLO DIVERSIFICADO"}},{"type":"Feature","id":38,"geometry":{"type":"Point","coordinates":[-90.7450999996797,14.5734999996325]},"properties":{"FID":38,"NAME":"INSTITUTO MIXTO NOCTURNO DIVERSIFICADO POR COOPERATIVA","LEVEL_":"CICLO DIVERSIFICADO"}},{"type":"Feature","id":39,"geometry":{"type":"Point","coordinates":[-90.7550000000673,14.5925999995922]},"properties":{"FID":39,"NAME":"IEBC DE ENSE5ANZA","LEVEL_":"CICLO BASICO"}},{"type":"Feature","id":40,"geometry":{"type":"Point","coordinates":[-90.7550000000673,14.5925999995922]},"properties":{"FID":40,"NAME":"INSTITUTO DIVERSIFICADO POR COOPERATIVA","LEVEL_":"CICLO DIVERSIFICADO"}},{"type":"Feature","id":41,"geometry":{"type":"Point","coordinates":[-90.6737000000573,14.5603000001606]},"properties":{"FID":41,"NAME":"IEBC DE ENSE5ANZA","LEVEL_":"CICLO BASICO"}},{"type":"Feature","id":42,"geometry":{"type":"Point","coordinates":[-90.6737000000573,14.5603000001606]},"properties":{"FID":42,"NAME":"INSTITUTO DIVERSIFICADO POR COOPERATIVA DE ENSENANZA","LEVEL_":"CICLO DIVERSIFICADO"}},{"type":"Feature","id":43,"geometry":{"type":"Point","coordinates":[-90.6556999998852,14.6089000002701]},"properties":{"FID":43,"NAME":"IEBC DE ENSE5ANZA","LEVEL_":"CICLO BASICO"}},{"type":"Feature","id":44,"geometry":{"type":"Point","coordinates":[-90.6557999997172,14.608799999645]},"properties":{"FID":44,"NAME":"INSTITUTO MIXTO POR COOPERATIVA DE ENSEDANZA","LEVEL_":"CICLO BASICO"}},{"type":"Feature","id":45,"geometry":{"type":"Point","coordinates":[-90.6557999997172,14.608799999645]},"properties":{"FID":45,"NAME":"INSTITUTO MIXTO POR COOPERATIVA DE ENSEUANZA","LEVEL_":"CICLO DIVERSIFICADO"}},{"type":"Feature","id":46,"geometry":{"type":"Point","coordinates":[-90.6735999997551,14.5603000001937]},"properties":{"FID":46,"NAME":"IEBC DE ENSE5ANZA","LEVEL_":"CICLO BASICO"}},{"type":"Feature","id":47,"geometry":{"type":"Point","coordinates":[-90.709899999841,14.4943000003202]},"properties":{"FID":47,"NAME":"IEBC DE ENSEYANZA","LEVEL_":"CICLO BASICO"}},{"type":"Feature","id":48,"geometry":{"type":"Point","coordinates":[-90.7612999995861,14.5245000001773]},"properties":{"FID":48,"NAME":"IEBC DE ENSE5ANZA","LEVEL_":"CICLO BASICO"}},{"type":"Feature","id":49,"geometry":{"type":"Point","coordinates":[-90.7612999995861,14.5245000001773]},"properties":{"FID":49,"NAME":"INSTITUTO DIVERSIFICADO POR COOPERATIVA DE ENSEAANZA 'CIENCIAS COMERCIALES ALMOLONGA'","LEVEL_":"CICLO DIVERSIFICADO"}},{"type":"Feature","id":50,"geometry":{"type":"Point","coordinates":[-91.4024000003826,14.7919000003564]},"properties":{"FID":50,"NAME":"INEB DE TELESECUNDARIA","LEVEL_":"CICLO BASICO"}},{"type":"Feature","id":51,"geometry":{"type":"Point","coordinates":[-90.779400000084,14.5487999997969]},"properties":{"FID":51,"NAME":"IEBC DE ENSE5ANZA","LEVEL_":"CICLO BASICO"}},{"type":"Feature","id":52,"geometry":{"type":"Point","coordinates":[-91.3386000003294,14.7334999995889]},"properties":{"FID":52,"NAME":"IEBC","LEVEL_":"CICLO BASICO"}},{"type":"Feature","id":53,"geometry":{"type":"Point","coordinates":[-90.779400000084,14.5487999997969]},"properties":{"FID":53,"NAME":"INSTITUTO POR COOPERATIVA","LEVEL_":"CICLO DIVERSIFICADO"}},{"type":"Feature","id":54,"geometry":{"type":"Point","coordinates":[-91.4931000001147,14.6101000002863]},"properties":{"FID":54,"NAME":"IEBC K'AK' SAQIRB'AL (NUEVO AMANECER)","LEVEL_":"CICLO BASICO"}},{"type":"Feature","id":55,"geometry":{"type":"Point","coordinates":[-90.8096999998595,14.6378000004016]},"properties":{"FID":55,"NAME":"INEB ADSCRITA A ESCUELA NORMAL RURAL NO.1 'PEDRO MOLINA'","LEVEL_":"CICLO BASICO"}},{"type":"Feature","id":56,"geometry":{"type":"Point","coordinates":[-91.3935999996929,14.8130000002152]},"properties":{"FID":56,"NAME":"NUCLEO FAMILIAR EDUCATIVO PARA EL DESARROLLO NUFED N. 26","LEVEL_":"CICLO BASICO"}},{"type":"Feature","id":57,"geometry":{"type":"Point","coordinates":[-90.8096999998595,14.6378000004016]},"properties":{"FID":57,"NAME":"ESCUELA NORMAL RURAL 'DR. PEDRO MOLINA'","LEVEL_":"CICLO DIVERSIFICADO"}},{"type":"Feature","id":58,"geometry":{"type":"Point","coordinates":[-90.8290000000015,14.6612999997385]},"properties":{"FID":58,"NAME":"INSTITUTO NACIONAL MIXTO EXPERIMENTAL DE EDUCACION BASICA CON ORIENTACION OCUPACIONAL 'LEONIDAS MENCOS AVILA'","LEVEL_":"CICLO BASICO"}},{"type":"Feature","id":59,"geometry":{"type":"Point","coordinates":[-91.3017999998549,14.7170000000962]},"properties":{"FID":59,"NAME":"IEBC DE ENSE5ANZA","LEVEL_":"CICLO BASICO"}},{"type":"Feature","id":60,"geometry":{"type":"Point","coordinates":[-90.8290000000015,14.6612999997385]},"properties":{"FID":60,"NAME":"ESCUELA NACIONAL DE CIENCIAS COMERCIALES 'LEONIDAS MENCOS AVILA'","LEVEL_":"CICLO DIVERSIFICADO"}},{"type":"Feature","id":61,"geometry":{"type":"Point","coordinates":[-91.3017999998549,14.7170000000962]},"properties":{"FID":61,"NAME":"CENTRO EDUCATIVO DIVERSIFICADO COMUNITARIO","LEVEL_":"CICLO DIVERSIFICADO"}},{"type":"Feature","id":62,"geometry":{"type":"Point","coordinates":[-91.1531999998787,14.7455999996751]},"properties":{"FID":62,"NAME":"IEBC DE ENSE5ANZA","LEVEL_":"CICLO BASICO"}},{"type":"Feature","id":63,"geometry":{"type":"Point","coordinates":[-90.8290000000015,14.6612999997385]},"properties":{"FID":63,"NAME":"INSTITUTO MIXTO DE CIENCIAS COMERCIALES POR COOPERATIVA MUNICIPAL 'PROF. MIGUEL ANGEL FRANCISCO JUAREZ PEREZ'","LEVEL_":"CICLO DIVERSIFICADO"}},{"type":"Feature","id":64,"geometry":{"type":"Point","coordinates":[-90.8290000000015,14.6612999997385]},"properties":{"FID":64,"NAME":"IEBC","LEVEL_":"CICLO BASICO"}},{"type":"Feature","id":65,"geometry":{"type":"Point","coordinates":[-91.1430999999705,14.6339000004392]},"properties":{"FID":65,"NAME":"IEBC DE ENSE5ANZA 'EDUARDO DIAZ BARRIOS'","LEVEL_":"CICLO BASICO"}},{"type":"Feature","id":66,"geometry":{"type":"Point","coordinates":[-90.8389999997123,14.6631000002317]},"properties":{"FID":66,"NAME":"IEBC","LEVEL_":"CICLO BASICO"}},{"type":"Feature","id":67,"geometry":{"type":"Point","coordinates":[-91.2856000000127,14.6959000001132]},"properties":{"FID":67,"NAME":"CENTRO EDUCATIVO INTEGRAL MAYA TZUTUJIL 'OSCAR AZMITIA'","LEVEL_":"CICLO DIVERSIFICADO"}},{"type":"Feature","id":68,"geometry":{"type":"Point","coordinates":[-90.8096999998595,14.6378000004016]},"properties":{"FID":68,"NAME":"ESCUELA NORMAL DE EDUCACION BILINGUE INTERCULTURAL 'RUK'U'X WAQXAQI' Q'ANIL' (ESENCIA DE LAS OCHO SEMILLAS)","LEVEL_":"CICLO DIVERSIFICADO"}},{"type":"Feature","id":69,"geometry":{"type":"Point","coordinates":[-91.2298000003368,14.6388999996825]},"properties":{"FID":69,"NAME":"IEBC DE ENSE5ANZA","LEVEL_":"CICLO BASICO"}},{"type":"Feature","id":70,"geometry":{"type":"Point","coordinates":[-90.9146000003925,14.8181999996113]},"properties":{"FID":70,"NAME":"IEBC DE ENSE5ANZA","LEVEL_":"CICLO BASICO"}},{"type":"Feature","id":71,"geometry":{"type":"Point","coordinates":[-91.1680999997782,14.6693999998517]},"properties":{"FID":71,"NAME":"IEBC","LEVEL_":"CICLO BASICO"}},{"type":"Feature","id":72,"geometry":{"type":"Point","coordinates":[-91.2298000003368,14.6388999996825]},"properties":{"FID":72,"NAME":"ESCUELA NORMAL BILINGUE INTERCULTURAL/KITIJOB'AL TIJOONELAA' TZ'UTUJILAA'","LEVEL_":"CICLO DIVERSIFICADO"}},{"type":"Feature","id":73,"geometry":{"type":"Point","coordinates":[-90.8791000001453,14.8322999998014]},"properties":{"FID":73,"NAME":"INEB DE TELESECUNDARIA","LEVEL_":"CICLO BASICO"}},{"type":"Feature","id":74,"geometry":{"type":"Point","coordinates":[-91.3609000003656,14.9106000000839]},"properties":{"FID":74,"NAME":"INEB","LEVEL_":"CICLO BASICO"}},{"type":"Feature","id":75,"geometry":{"type":"Point","coordinates":[-90.7918999998795,14.7851999995909]},"properties":{"FID":75,"NAME":"INEB 'ANIBAL ALBUREZ ROCA'","LEVEL_":"CICLO BASICO"}},{"type":"Feature","id":76,"geometry":{"type":"Point","coordinates":[-91.3703999998655,14.9108999997136]},"properties":{"FID":76,"NAME":"INEB ADSCRITO A ESCUELA NORMAL NACIONAL RURAL DE OCCIDENTE 'GUILLERMO OVANDO ARRIOLA'","LEVEL_":"CICLO BASICO"}},{"type":"Feature","id":77,"geometry":{"type":"Point","coordinates":[-90.6957999997784,14.8843000000184]},"properties":{"FID":77,"NAME":"INEB DE TELESECUNDARIA","LEVEL_":"CICLO BASICO"}},{"type":"Feature","id":78,"geometry":{"type":"Point","coordinates":[-91.3703999998655,14.9108999997136]},"properties":{"FID":78,"NAME":"ESCUELA NORMAL NACIONAL RURAL DE OCCIDENTE 'GUILLERMO OVANDO ARRIOLA'","LEVEL_":"CICLO DIVERSIFICADO"}},{"type":"Feature","id":79,"geometry":{"type":"Point","coordinates":[-90.7491999996674,14.8079999996514]},"properties":{"FID":79,"NAME":"INEB DE TELESECUNDARIA","LEVEL_":"CICLO BASICO"}},{"type":"Feature","id":80,"geometry":{"type":"Point","coordinates":[-90.7934000002504,14.789799999595]},"properties":{"FID":80,"NAME":"ESCUELA NORMAL BILINGUE INTERCULTURAL 'NIM NA'OJ'","LEVEL_":"CICLO DIVERSIFICADO"}},{"type":"Feature","id":81,"geometry":{"type":"Point","coordinates":[-91.3703999998655,14.9108999997136]},"properties":{"FID":81,"NAME":"ESCUELA NORMAL RURAL DE OCCIDENTE NO. 2","LEVEL_":"CICLO DIVERSIFICADO"}},{"type":"Feature","id":82,"geometry":{"type":"Point","coordinates":[-91.3661999999942,14.9249999999047]},"properties":{"FID":82,"NAME":"IEBC","LEVEL_":"CICLO BASICO"}},{"type":"Feature","id":83,"geometry":{"type":"Point","coordinates":[-90.7962999996752,14.7854999995865]},"properties":{"FID":83,"NAME":"ESCUELA MUNICIPAL DE FORMACION DE MAESTROS DE PRIMARIA CON  ORIENTACION BILINGUE KAQCHIQUEL SAN MARTIN","LEVEL_":"CICLO DIVERSIFICADO"}},{"type":"Feature","id":84,"geometry":{"type":"Point","coordinates":[-91.3096000004496,14.8907999998531]},"properties":{"FID":84,"NAME":"IEBC","LEVEL_":"CICLO BASICO"}},{"type":"Feature","id":85,"geometry":{"type":"Point","coordinates":[-90.8871000001468,14.7320000001933]},"properties":{"FID":85,"NAME":"INEB 'ANDRES CURRUCHICHE'","LEVEL_":"CICLO BASICO"}},{"type":"Feature","id":86,"geometry":{"type":"Point","coordinates":[-91.3703000000883,14.9121999999245]},"properties":{"FID":86,"NAME":"ESCUELA NORMAL DE EDUCACION FISICA","LEVEL_":"CICLO DIVERSIFICADO"}},{"type":"Feature","id":87,"geometry":{"type":"Point","coordinates":[-90.8871000001468,14.7320000001933]},"properties":{"FID":87,"NAME":"ESCUELA NACIONAL DE CIENCIAS COMERCIALES ADSCRITO AL INSTITUTO 'ANDRES CURRUCHICHE'","LEVEL_":"CICLO DIVERSIFICADO"}},{"type":"Feature","id":88,"geometry":{"type":"Point","coordinates":[-90.8934000000194,14.7422000001445]},"properties":{"FID":88,"NAME":"INSTITUTO MIXTO NOCTURNO DE EDUCACION BASICA POR COOPERATIVA","LEVEL_":"CICLO BASICO"}},{"type":"Feature","id":89,"geometry":{"type":"Point","coordinates":[-91.3703999998655,14.9108999997136]},"properties":{"FID":89,"NAME":"INSTITUTO DE BACHILLERATO EN COMPUTACION","LEVEL_":"CICLO DIVERSIFICADO"}},{"type":"Feature","id":90,"geometry":{"type":"Point","coordinates":[-90.8515999996064,14.7969000003798]},"properties":{"FID":90,"NAME":"IEBC 'REignA DE ALEMANIA'","LEVEL_":"CICLO BASICO"}},{"type":"Feature","id":91,"geometry":{"type":"Point","coordinates":[-91.3703999998655,14.9108999997136]},"properties":{"FID":91,"NAME":"ESCUELA NORMAL PRIMARIA BILINGUE INTERCULTURAL ADSCRITA A LA ENRO","LEVEL_":"CICLO DIVERSIFICADO"}},{"type":"Feature","id":92,"geometry":{"type":"Point","coordinates":[-91.4437999995814,14.9419000001856]},"properties":{"FID":92,"NAME":"IEBC","LEVEL_":"CICLO BASICO"}},{"type":"Feature","id":93,"geometry":{"type":"Point","coordinates":[-90.845899999627,14.7307000004205]},"properties":{"FID":93,"NAME":"INEB DE TELESECUNDARIA","LEVEL_":"CICLO BASICO"}},{"type":"Feature","id":94,"geometry":{"type":"Point","coordinates":[-91.4868000002578,14.9984000000153]},"properties":{"FID":94,"NAME":"IEBC","LEVEL_":"CICLO BASICO"}},{"type":"Feature","id":95,"geometry":{"type":"Point","coordinates":[-90.9709999995755,14.7919999999641]},"properties":{"FID":95,"NAME":"IEBC","LEVEL_":"CICLO BASICO"}},{"type":"Feature","id":96,"geometry":{"type":"Point","coordinates":[-90.9370000000509,14.8275000002527]},"properties":{"FID":96,"NAME":"IEBC","LEVEL_":"CICLO BASICO"}},{"type":"Feature","id":97,"geometry":{"type":"Point","coordinates":[-91.5263000002149,14.9959000001871]},"properties":{"FID":97,"NAME":"IEBC 'CHIVARRETENSE'","LEVEL_":"CICLO BASICO"}},{"type":"Feature","id":98,"geometry":{"type":"Point","coordinates":[-90.9926000003157,14.7671000003115]},"properties":{"FID":98,"NAME":"IEBC","LEVEL_":"CICLO BASICO"}},{"type":"Feature","id":99,"geometry":{"type":"Point","coordinates":[-91.4076999996134,15.0418999996367]},"properties":{"FID":99,"NAME":"IEBC","LEVEL_":"CICLO BASICO"}},{"type":"Feature","id":100,"geometry":{"type":"Point","coordinates":[-91.582300000128,15.02959999968]},"properties":{"FID":100,"NAME":"INSTITUTO NACIONAL DE EDUCACION BASICA POR COOPERATIVA","LEVEL_":"CICLO BASICO"}},{"type":"Feature","id":101,"geometry":{"type":"Point","coordinates":[-90.9892000004028,14.7702999998134]},"properties":{"FID":101,"NAME":"INEB EXPERIMENTAL CON ORIENTACION OCUPACIONAL","LEVEL_":"CICLO BASICO"}},{"type":"Feature","id":102,"geometry":{"type":"Point","coordinates":[-91.4070000001568,15.0433000000032]},"properties":{"FID":102,"NAME":"INSTITUTO PRIVADO MIXTO DE EDUCACION DIVERSIFICADA 'MOMOSTECO'.","LEVEL_":"CICLO DIVERSIFICADO"}},{"type":"Feature","id":103,"geometry":{"type":"Point","coordinates":[-90.9892000004028,14.7702999998134]},"properties":{"FID":103,"NAME":"INSTITUTO TECNOLOGICO POR COOPERATIVA","LEVEL_":"CICLO DIVERSIFICADO"}},{"type":"Feature","id":104,"geometry":{"type":"Point","coordinates":[-91.4057000000342,15.0465999999233]},"properties":{"FID":104,"NAME":"IPMB 'KAJIB NOJ'","LEVEL_":"CICLO BASICO"}},{"type":"Feature","id":105,"geometry":{"type":"Point","coordinates":[-91.019800000141,14.6898999996574]},"properties":{"FID":105,"NAME":"IEBC","LEVEL_":"CICLO BASICO"}},{"type":"Feature","id":106,"geometry":{"type":"Point","coordinates":[-91.4083999999335,15.0100999999676]},"properties":{"FID":106,"NAME":"IEBC 'CHO KAQ ULEW'","LEVEL_":"CICLO BASICO"}},{"type":"Feature","id":107,"geometry":{"type":"Point","coordinates":[-91.0629000000694,14.6718000001155]},"properties":{"FID":107,"NAME":"NUCLEO FAMILIAR EDUCATIVO PARA EL DESARROLLO NUFED N. 148","LEVEL_":"CICLO BASICO"}},{"type":"Feature","id":108,"geometry":{"type":"Point","coordinates":[-91.4057000000342,15.0465999999233]},"properties":{"FID":108,"NAME":"INSTITUTO MAGISTERIO DE EDUCACION PRIMARIA BILINGUE INTERCULTURAL  POR COOPERATIVA DE ENSEIANZA","LEVEL_":"CICLO DIVERSIFICADO"}},{"type":"Feature","id":109,"geometry":{"type":"Point","coordinates":[-91.0636000004199,14.6839999997119]},"properties":{"FID":109,"NAME":"INSTITUTO MIXTO DE EDUCACION BASICA MUNICIPAL EL PARAISO","LEVEL_":"CICLO BASICO"}},{"type":"Feature","id":110,"geometry":{"type":"Point","coordinates":[-90.9245999998049,14.6320999998357]},"properties":{"FID":110,"NAME":"INEB '3 DE JUNIO'","LEVEL_":"CICLO BASICO"}},{"type":"Feature","id":111,"geometry":{"type":"Point","coordinates":[-91.353599999918,15.0739999997921]},"properties":{"FID":111,"NAME":"IEBC","LEVEL_":"CICLO BASICO"}},{"type":"Feature","id":112,"geometry":{"type":"Point","coordinates":[-91.3286999997246,15.0292000003405]},"properties":{"FID":112,"NAME":"IEBC","LEVEL_":"CICLO BASICO"}},{"type":"Feature","id":113,"geometry":{"type":"Point","coordinates":[-90.9471999998508,14.6838000001212]},"properties":{"FID":113,"NAME":"IEBC","LEVEL_":"CICLO BASICO"}},{"type":"Feature","id":114,"geometry":{"type":"Point","coordinates":[-91.5156000004548,15.110999999706]},"properties":{"FID":114,"NAME":"IEBC","LEVEL_":"CICLO BASICO"}},{"type":"Feature","id":115,"geometry":{"type":"Point","coordinates":[-90.9186999998724,14.6306999999897]},"properties":{"FID":115,"NAME":"INSTITUTO MIXTO DE EDUCACION BASICA POR COOPERATIVA 'PATZICIA'","LEVEL_":"CICLO BASICO"}},{"type":"Feature","id":116,"geometry":{"type":"Point","coordinates":[-91.8079999995649,14.8482000001319]},"properties":{"FID":116,"NAME":"INEB Y BACHILLERATO EN CIENCIAS Y LETRAS POR MADUREZ 'JACOBO ARBENZ GUZMAN'","LEVEL_":"CICLO BASICO"}},{"type":"Feature","id":117,"geometry":{"type":"Point","coordinates":[-90.9186999998724,14.6306999999897]},"properties":{"FID":117,"NAME":"INSTITUTO TECNICO EXPERIMENTAL AGROINDUSTRIAL'ALAN JUYU'","LEVEL_":"CICLO DIVERSIFICADO"}},{"type":"Feature","id":118,"geometry":{"type":"Point","coordinates":[-91.8079999995649,14.8482000001319]},"properties":{"FID":118,"NAME":"INSTITUTO NACIONAL DE BACHILLERATO POR MADUREZ 'JACOBO ARBENZ GUZMAN'","LEVEL_":"CICLO DIVERSIFICADO"}},{"type":"Feature","id":119,"geometry":{"type":"Point","coordinates":[-90.9234000003883,14.6864999997928]},"properties":{"FID":119,"NAME":"IEBC","LEVEL_":"CICLO BASICO"}},{"type":"Feature","id":120,"geometry":{"type":"Point","coordinates":[-91.514800000027,14.8446999998387]},"properties":{"FID":120,"NAME":"INEB ADSCRITO A ESCUELA DE CIENCIAS COMERCIALES 'ALBERTO CARDENAS'","LEVEL_":"CICLO BASICO"}},{"type":"Feature","id":121,"geometry":{"type":"Point","coordinates":[-90.9476000004311,14.5565999999161]},"properties":{"FID":121,"NAME":"INSTITUTO POR COOPERATIVA MUNICIPAL DE EDUCACION MEDIA 'I.C.E.M'","LEVEL_":"CICLO DIVERSIFICADO"}},{"type":"Feature","id":122,"geometry":{"type":"Point","coordinates":[-91.514800000027,14.8446999998387]},"properties":{"FID":122,"NAME":"ESCUELA NACIONAL DE CIENCIAS COMERCIALES 'PROF. ALBERTO CARDENAS RODAS'","LEVEL_":"CICLO DIVERSIFICADO"}},{"type":"Feature","id":123,"geometry":{"type":"Point","coordinates":[-91.5181999996676,14.8423000000393]},"properties":{"FID":123,"NAME":"IEEB 'GABRIEL ARRIOLA PORRES'","LEVEL_":"CICLO BASICO"}},{"type":"Feature","id":124,"geometry":{"type":"Point","coordinates":[-90.9371999999845,14.5528999998758]},"properties":{"FID":124,"NAME":"INSTITUTO MIXTO DE EDUCACION BASICA POR COOPERATIVA ACATENANAGO","LEVEL_":"CICLO BASICO"}},{"type":"Feature","id":125,"geometry":{"type":"Point","coordinates":[-91.5393999996465,14.8573999999603]},"properties":{"FID":125,"NAME":"INEB ADSCRITO AL INSTITUTO INDUSTRIAL PARA VARONES","LEVEL_":"CICLO BASICO"}},{"type":"Feature","id":126,"geometry":{"type":"Point","coordinates":[-90.9610999999605,14.4973999996447]},"properties":{"FID":126,"NAME":"IEBC DE ENSE5ANZA","LEVEL_":"CICLO BASICO"}},{"type":"Feature","id":127,"geometry":{"type":"Point","coordinates":[-91.8079999995649,14.8482000001319]},"properties":{"FID":127,"NAME":"INEB DR. WERNER OVALLE LOPEZ","LEVEL_":"CICLO BASICO"}},{"type":"Feature","id":128,"geometry":{"type":"Point","coordinates":[-90.8444999996142,14.620599999736]},"properties":{"FID":128,"NAME":"IEBC DE ENSE5ANZA","LEVEL_":"CICLO BASICO"}},{"type":"Feature","id":129,"geometry":{"type":"Point","coordinates":[-90.8029999999853,14.6151000004302]},"properties":{"FID":129,"NAME":"IEBC","LEVEL_":"CICLO BASICO"}},{"type":"Feature","id":130,"geometry":{"type":"Point","coordinates":[-91.5187000002521,14.8384999999058]},"properties":{"FID":130,"NAME":"INEB PARA SE5ORITAS","LEVEL_":"CICLO BASICO"}},{"type":"Feature","id":131,"geometry":{"type":"Point","coordinates":[-91.474700000159,14.2402000000152]},"properties":{"FID":131,"NAME":"IEBC","LEVEL_":"CICLO BASICO"}},{"type":"Feature","id":132,"geometry":{"type":"Point","coordinates":[-91.5166000003234,14.8399999997696]},"properties":{"FID":132,"NAME":"INEB ADS. AL INSTITUTO NORMAL P/VARONES DE OCCIDENTE","LEVEL_":"CICLO BASICO"}},{"type":"Feature","id":133,"geometry":{"type":"Point","coordinates":[-90.8905999995728,14.6431999996382]},"properties":{"FID":133,"NAME":"IEBC DE ENSEQANZA 'LIC. CARLOS ABILIO GIRON NORIEGA'","LEVEL_":"CICLO BASICO"}},{"type":"Feature","id":134,"geometry":{"type":"Point","coordinates":[-91.5130999995371,14.4853999996663]},"properties":{"FID":134,"NAME":"COLEGIO PRIVADO MIXTO 'LICEO LORENZANO'","LEVEL_":"CICLO BASICO"}},{"type":"Feature","id":135,"geometry":{"type":"Point","coordinates":[-91.5166000003234,14.8399999997696]},"properties":{"FID":135,"NAME":"INSTITUTO NORMAL PARA VARONES DE OCCIDENTE 'I.N.V.O'","LEVEL_":"CICLO DIVERSIFICADO"}},{"type":"Feature","id":136,"geometry":{"type":"Point","coordinates":[-90.8886999998934,14.6684999996318]},"properties":{"FID":136,"NAME":"IEBC COMUNITARIO","LEVEL_":"CICLO BASICO"}},{"type":"Feature","id":137,"geometry":{"type":"Point","coordinates":[-91.4678999995461,14.5505999999204]},"properties":{"FID":137,"NAME":"INEB DE TELESECUNDARIA","LEVEL_":"CICLO BASICO"}},{"type":"Feature","id":138,"geometry":{"type":"Point","coordinates":[-91.5189000003794,14.8396999995935]},"properties":{"FID":138,"NAME":"INEB ADS.AL INSTITUTO NORMAL PARA SEIORITAS DE OCCIDENTE (I.N.S.O.)","LEVEL_":"CICLO BASICO"}},{"type":"Feature","id":139,"geometry":{"type":"Point","coordinates":[-91.5193000004278,14.8398999998571]},"properties":{"FID":139,"NAME":"INSTITUTO NORMAL PARA SERORITAS DE OCCIDENTE","LEVEL_":"CICLO DIVERSIFICADO"}},{"type":"Feature","id":140,"geometry":{"type":"Point","coordinates":[-91.4555000000796,14.584899999954]},"properties":{"FID":140,"NAME":"INEB CON ORIENTACION OCUPACIONAL","LEVEL_":"CICLO BASICO"}},{"type":"Feature","id":141,"geometry":{"type":"Point","coordinates":[-90.7911000001037,14.6458999997703]},"properties":{"FID":141,"NAME":"IEBC DE ENSE5ANZA","LEVEL_":"CICLO BASICO"}},{"type":"Feature","id":142,"geometry":{"type":"Point","coordinates":[-91.4555000000796,14.584899999954]},"properties":{"FID":142,"NAME":"INSTITUTO DIVERSIFICADO POR COOPERATIVA EDUCACION POR LA PAZ Y DESARROLLO COMUNITARIO","LEVEL_":"CICLO DIVERSIFICADO"}},{"type":"Feature","id":143,"geometry":{"type":"Point","coordinates":[-90.7909000003374,14.6558999996515]},"properties":{"FID":143,"NAME":"INEB CON ORIENTACION INDUSTRIAL","LEVEL_":"CICLO BASICO"}},{"type":"Feature","id":144,"geometry":{"type":"Point","coordinates":[-91.514800000027,14.8446999998387]},"properties":{"FID":144,"NAME":"ESCUELA NACIONAL DE CIENCIAS COMERCIALES SECCION DIURNA","LEVEL_":"CICLO DIVERSIFICADO"}},{"type":"Feature","id":145,"geometry":{"type":"Point","coordinates":[-91.4552999999052,14.5853999997273]},"properties":{"FID":145,"NAME":"IEBC CON ORIENTACION EN COMPUTACION","LEVEL_":"CICLO BASICO"}},{"type":"Feature","id":146,"geometry":{"type":"Point","coordinates":[-90.7911000001037,14.6458999997703]},"properties":{"FID":146,"NAME":"INSTITUTO POR COOPERATIVA DE EDUCACION MEDIA 'I.C.E.M'","LEVEL_":"CICLO DIVERSIFICADO"}},{"type":"Feature","id":147,"geometry":{"type":"Point","coordinates":[-91.5181999996676,14.8423000000393]},"properties":{"FID":147,"NAME":"ESCUELA NORMAL DE MAESTRAS DE EDUC. PARA EL HOGAR 'HUMBERTO MIRANDA FUENTES'","LEVEL_":"CICLO DIVERSIFICADO"}},{"type":"Feature","id":148,"geometry":{"type":"Point","coordinates":[-90.7911000001037,14.6458999997703]},"properties":{"FID":148,"NAME":"ESCUELA NORMAL DE EDUCACION FISICA","LEVEL_":"CICLO DIVERSIFICADO"}},{"type":"Feature","id":149,"geometry":{"type":"Point","coordinates":[-91.5393999996465,14.8573999999603]},"properties":{"FID":149,"NAME":"INSTITUTO TECNICO INDUSTRIAL PARA VARONES DE QUETZALTENANGO","LEVEL_":"CICLO DIVERSIFICADO"}},{"type":"Feature","id":150,"geometry":{"type":"Point","coordinates":[-91.4030000004477,14.4991000000631]},"properties":{"FID":150,"NAME":"IEBC","LEVEL_":"CICLO BASICO"}},{"type":"Feature","id":151,"geometry":{"type":"Point","coordinates":[-90.8311000002281,14.3907999996384]},"properties":{"FID":151,"NAME":"IEBC DE ENSE5ANZA","LEVEL_":"CICLO BASICO"}},{"type":"Feature","id":152,"geometry":{"type":"Point","coordinates":[-91.8079999995649,14.8482000001319]},"properties":{"FID":152,"NAME":"INSTITUTO DIVERSIFICADO ADSC. AL INEB 'DOCTOR WERNER OVALLE LOPEZ'","LEVEL_":"CICLO DIVERSIFICADO"}},{"type":"Feature","id":153,"geometry":{"type":"Point","coordinates":[-91.3805000003526,14.5086000001619]},"properties":{"FID":153,"NAME":"INSTITUTO MUNICIPAL DE EDUCACIAN BASICA","LEVEL_":"CICLO BASICO"}},{"type":"Feature","id":154,"geometry":{"type":"Point","coordinates":[-90.7890999997514,14.2997000002333]},"properties":{"FID":154,"NAME":"INEB 'SIMON BERGA","LEVEL_":"CICLO BASICO"}},{"type":"Feature","id":155,"geometry":{"type":"Point","coordinates":[-91.5181999996676,14.8423000000393]},"properties":{"FID":155,"NAME":"ESCUELA NORMAL DE EDUCACION FISICA","LEVEL_":"CICLO DIVERSIFICADO"}},{"type":"Feature","id":156,"geometry":{"type":"Point","coordinates":[-91.3809999999537,14.4382000002643]},"properties":{"FID":156,"NAME":"IEBC","LEVEL_":"CICLO BASICO"}},{"type":"Feature","id":157,"geometry":{"type":"Point","coordinates":[-90.7890999997514,14.2997000002333]},"properties":{"FID":157,"NAME":"ESCUELA NACIONAL DE CIENCIAS COMERCIALES ADS. AL INEB SIMON BERGAUO Y VILLEGAS","LEVEL_":"CICLO DIVERSIFICADO"}},{"type":"Feature","id":158,"geometry":{"type":"Point","coordinates":[-91.8079999995649,14.8482000001319]},"properties":{"FID":158,"NAME":"INEB Y BACHILLERATO EN CIENCIAS Y LETRAS 'JACOBO ARBENZ GUZMAN'","LEVEL_":"CICLO BASICO"}},{"type":"Feature","id":159,"geometry":{"type":"Point","coordinates":[-91.1598999996284,14.4222000004176]},"properties":{"FID":159,"NAME":"IEBC 'EDUARDO TORRES'","LEVEL_":"CICLO BASICO"}},{"type":"Feature","id":160,"geometry":{"type":"Point","coordinates":[-90.7856999998337,14.301999999615]},"properties":{"FID":160,"NAME":"LICEO 'JUVENIL CENTROAMERICANO'","LEVEL_":"CICLO BASICO"}},{"type":"Feature","id":161,"geometry":{"type":"Point","coordinates":[-91.5166000003234,14.8399999997696]},"properties":{"FID":161,"NAME":"INSTITUTO DE BACHILLERATO EN COMPUTACION ADS. AL I.N.V.O","LEVEL_":"CICLO DIVERSIFICADO"}},{"type":"Feature","id":162,"geometry":{"type":"Point","coordinates":[-91.1982000001189,14.3954000000989]},"properties":{"FID":162,"NAME":"IEBC","LEVEL_":"CICLO BASICO"}},{"type":"Feature","id":163,"geometry":{"type":"Point","coordinates":[-90.7856999998337,14.301999999615]},"properties":{"FID":163,"NAME":"'LICEO JUVENIL CENTROAMERICANO'","LEVEL_":"CICLO DIVERSIFICADO"}},{"type":"Feature","id":164,"geometry":{"type":"Point","coordinates":[-91.5189000003794,14.8396999995935]},"properties":{"FID":164,"NAME":"ESCUELA NORMAL DE PARVULOS ADSCRITA AL I.N.S.O","LEVEL_":"CICLO DIVERSIFICADO"}},{"type":"Feature","id":165,"geometry":{"type":"Point","coordinates":[-91.5386000002085,14.6505999998967]},"properties":{"FID":165,"NAME":"INSTITUTO DIVERSIFICADO POR COOPERATIVA","LEVEL_":"CICLO DIVERSIFICADO"}},{"type":"Feature","id":166,"geometry":{"type":"Point","coordinates":[-91.514800000027,14.8446999998387]},"properties":{"FID":166,"NAME":"ESCUELA NORMAL BILINGUE INTERCULTURAL KITIJOB'AL K'ICHE' TIJONELAB'","LEVEL_":"CICLO DIVERSIFICADO"}},{"type":"Feature","id":167,"geometry":{"type":"Point","coordinates":[-91.3300000003122,14.4661000004426]},"properties":{"FID":167,"NAME":"INSTITUTO MUNICIPAL DE EDUCACION BASICA COMUNIDAD  AGRARIA LA CAMPESINA","LEVEL_":"CICLO BASICO"}},{"type":"Feature","id":168,"geometry":{"type":"Point","coordinates":[-91.5181999996676,14.8423000000393]},"properties":{"FID":168,"NAME":"INEB ADSC. A ESCUELA NORMAL/MAESTRAS DE EDUC. P/HOGAR 'PROF. HUMBERTO MIRANDA FUENTES'","LEVEL_":"CICLO BASICO"}},{"type":"Feature","id":169,"geometry":{"type":"Point","coordinates":[-91.6745999998553,14.5457000001045]},"properties":{"FID":169,"NAME":"INEB CON ORIENT. OCUPACIONAL 'GRAL. CARLOS MANUEL ARANA OSORIO'","LEVEL_":"CICLO BASICO"}},{"type":"Feature","id":170,"geometry":{"type":"Point","coordinates":[-91.4583999998841,14.8872000001778]},"properties":{"FID":170,"NAME":"INEB CON ORIENTACION INDUSTRIAL","LEVEL_":"CICLO BASICO"}},{"type":"Feature","id":171,"geometry":{"type":"Point","coordinates":[-91.6745999998553,14.5457000001045]},"properties":{"FID":171,"NAME":"INSTITUTO OFICIAL DIVERSIFICADO CON ORIENTACION EN COMPUTACION","LEVEL_":"CICLO DIVERSIFICADO"}},{"type":"Feature","id":172,"geometry":{"type":"Point","coordinates":[-91.5527999997366,14.9833000001993]},"properties":{"FID":172,"NAME":"INEB CON ORIENTACION OCUPACIONAL PEM HUMBERTO ARTURO MALDONADO MALDONADO","LEVEL_":"CICLO BASICO"}},{"type":"Feature","id":173,"geometry":{"type":"Point","coordinates":[-91.6843999999166,14.5363999996503]},"properties":{"FID":173,"NAME":"INEB ADSCRITO AL INSTITUTO NORMAL MIXTO 'CARLOS DUBON'","LEVEL_":"CICLO BASICO"}},{"type":"Feature","id":174,"geometry":{"type":"Point","coordinates":[-91.5958000001682,15.0063999997269]},"properties":{"FID":174,"NAME":"NUCLEO FAMILIAR EDUCATIVO PARA EL DESARROLLO NUFED NO.6","LEVEL_":"CICLO BASICO"}},{"type":"Feature","id":175,"geometry":{"type":"Point","coordinates":[-91.6843999999166,14.5363999996503]},"properties":{"FID":175,"NAME":"INSTITUTO NORMAL MIXTO 'CARLOS DUBON'","LEVEL_":"CICLO DIVERSIFICADO"}},{"type":"Feature","id":176,"geometry":{"type":"Point","coordinates":[-91.5944000000809,15.0025000002424]},"properties":{"FID":176,"NAME":"ESCUELA PRIVADA NORMAL DE MAGISTERIO OCUPACIONAL","LEVEL_":"CICLO DIVERSIFICADO"}},{"type":"Feature","id":177,"geometry":{"type":"Point","coordinates":[-91.6843999999166,14.5363999996503]},"properties":{"FID":177,"NAME":"INEB ADSCRITO A INSTITUTO NORMAL MIXTO 'CARLOS DUBON'","LEVEL_":"CICLO BASICO"}},{"type":"Feature","id":178,"geometry":{"type":"Point","coordinates":[-91.5832000004521,14.9812000001001]},"properties":{"FID":178,"NAME":"IEBC","LEVEL_":"CICLO BASICO"}},{"type":"Feature","id":179,"geometry":{"type":"Point","coordinates":[-91.6843999999166,14.5363999996503]},"properties":{"FID":179,"NAME":"INEB ADSCRITO INSTITUTO NORMAL MIXTO 'CARLOS DUBON'","LEVEL_":"CICLO BASICO"}},{"type":"Feature","id":180,"geometry":{"type":"Point","coordinates":[-91.6652000002223,14.9832999996081]},"properties":{"FID":180,"NAME":"INEB DE TELESECUNDARIA","LEVEL_":"CICLO BASICO"}},{"type":"Feature","id":181,"geometry":{"type":"Point","coordinates":[-91.6967999996389,14.549200000375]},"properties":{"FID":181,"NAME":"IEBC","LEVEL_":"CICLO BASICO"}},{"type":"Feature","id":182,"geometry":{"type":"Point","coordinates":[-91.625300000449,14.9938999996575]},"properties":{"FID":182,"NAME":"INSTITUTO PRIVADO MIXTO SIBILIA","LEVEL_":"CICLO DIVERSIFICADO"}},{"type":"Feature","id":183,"geometry":{"type":"Point","coordinates":[-91.6965000004374,14.532400000279]},"properties":{"FID":183,"NAME":"ESCUELA NORMAL DE EDUCACION FISICA","LEVEL_":"CICLO DIVERSIFICADO"}},{"type":"Feature","id":184,"geometry":{"type":"Point","coordinates":[-91.6402999995657,14.5997999997349]},"properties":{"FID":184,"NAME":"IEBC 'SAN LUIS'","LEVEL_":"CICLO BASICO"}},{"type":"Feature","id":185,"geometry":{"type":"Point","coordinates":[-91.6572999997144,14.9067000000454]},"properties":{"FID":185,"NAME":"INEB DE TELESECUNDARIA","LEVEL_":"CICLO BASICO"}},{"type":"Feature","id":186,"geometry":{"type":"Point","coordinates":[-91.6402999995657,14.5997999997349]},"properties":{"FID":186,"NAME":"INSTITUTO DIVERSIFICADO POR COOPERATIVA","LEVEL_":"CICLO DIVERSIFICADO"}},{"type":"Feature","id":187,"geometry":{"type":"Point","coordinates":[-91.5924999995718,14.8595000003988]},"properties":{"FID":187,"NAME":"IEBC DE ENSE5ANZA","LEVEL_":"CICLO BASICO"}},{"type":"Feature","id":188,"geometry":{"type":"Point","coordinates":[-91.6019000000673,14.8588999995963]},"properties":{"FID":188,"NAME":"INEB DE TELESECUNDARIA","LEVEL_":"CICLO BASICO"}},{"type":"Feature","id":189,"geometry":{"type":"Point","coordinates":[-91.5998999998679,14.6234000000067]},"properties":{"FID":189,"NAME":"INEB CON ORIENTACION COMERCIAL","LEVEL_":"CICLO BASICO"}},{"type":"Feature","id":190,"geometry":{"type":"Point","coordinates":[-91.7355999997023,14.785299999963]},"properties":{"FID":190,"NAME":"INEB DE TELESECUNDARIA","LEVEL_":"CICLO BASICO"}},{"type":"Feature","id":191,"geometry":{"type":"Point","coordinates":[-91.5998999998679,14.6234000000067]},"properties":{"FID":191,"NAME":"ESCUELA DE CIENCIAS COMERCIALES 'ESCO'","LEVEL_":"CICLO DIVERSIFICADO"}},{"type":"Feature","id":192,"geometry":{"type":"Point","coordinates":[-91.6541999995547,14.8400000003566]},"properties":{"FID":192,"NAME":"NUCLEO FAMILIAR EDUCATIVO PARA EL DESARROLLO (NUFED)","LEVEL_":"CICLO BASICO"}},{"type":"Feature","id":193,"geometry":{"type":"Point","coordinates":[-91.5752999995963,14.6287000003095]},"properties":{"FID":193,"NAME":"INSTITUTO DE EDUCACION BASICA POR COOPERATIVA","LEVEL_":"CICLO BASICO"}},{"type":"Feature","id":194,"geometry":{"type":"Point","coordinates":[-91.6605999999497,14.814599999834]},"properties":{"FID":194,"NAME":"NUCLEO FAMILIAR EDUCATIVO PARA EL DESARROLLO (NUFED)","LEVEL_":"CICLO BASICO"}},{"type":"Feature","id":195,"geometry":{"type":"Point","coordinates":[-91.6738000003459,14.2341999997358]},"properties":{"FID":195,"NAME":"IEBC DE ENSE5ANZA","LEVEL_":"CICLO BASICO"}},{"type":"Feature","id":196,"geometry":{"type":"Point","coordinates":[-91.4547999998845,14.814800000043]},"properties":{"FID":196,"NAME":"INEB CON ORIENTACION AGROPECUARIA 'CANTEL'","LEVEL_":"CICLO BASICO"}},{"type":"Feature","id":197,"geometry":{"type":"Point","coordinates":[-91.5857000002929,14.5809000001699]},"properties":{"FID":197,"NAME":"INSTITUTO DIVERSIFICADO MUNICIPAL SAN ANDRES VILLA SECA","LEVEL_":"CICLO DIVERSIFICADO"}},{"type":"Feature","id":198,"geometry":{"type":"Point","coordinates":[-91.4887999997189,14.7862999998345]},"properties":{"FID":198,"NAME":"IEBC DE ENSE5ANZA","LEVEL_":"CICLO BASICO"}},{"type":"Feature","id":199,"geometry":{"type":"Point","coordinates":[-91.7818000002486,14.2656999997562]},"properties":{"FID":199,"NAME":"IEBC","LEVEL_":"CICLO BASICO"}},{"type":"Feature","id":200,"geometry":{"type":"Point","coordinates":[-91.7625999995812,14.7068999998778]},"properties":{"FID":200,"NAME":"IEBC DE ENSE5ANZA","LEVEL_":"CICLO BASICO"}},{"type":"Feature","id":201,"geometry":{"type":"Point","coordinates":[-91.6906000001342,14.5914999998661]},"properties":{"FID":201,"NAME":"INSTITUTO MUNICIPAL 'SAN CARLOS'","LEVEL_":"CICLO DIVERSIFICADO"}},{"type":"Feature","id":202,"geometry":{"type":"Point","coordinates":[-91.7295000002634,14.7104999996094]},"properties":{"FID":202,"NAME":"INSTITUTO DE CIENCIAS COMERCIALES 'COLOMBA'","LEVEL_":"CICLO DIVERSIFICADO"}},{"type":"Feature","id":203,"geometry":{"type":"Point","coordinates":[-91.6906000001342,14.5914999998661]},"properties":{"FID":203,"NAME":"ESCUELA NORMAL INTERCULTURAL","LEVEL_":"CICLO DIVERSIFICADO"}},{"type":"Feature","id":204,"geometry":{"type":"Point","coordinates":[-91.7647000002974,14.7714000001121]},"properties":{"FID":204,"NAME":"IEBC DE ENSE5ANZA","LEVEL_":"CICLO BASICO"}},{"type":"Feature","id":205,"geometry":{"type":"Point","coordinates":[-91.7245000004519,14.5927999999251]},"properties":{"FID":205,"NAME":"IEBC DE ENSE5ANZA 'PROF. T. ARMANDO MALDONADO C.'","LEVEL_":"CICLO BASICO"}},{"type":"Feature","id":206,"geometry":{"type":"Point","coordinates":[-91.7635999996831,14.6739000003087]},"properties":{"FID":206,"NAME":"IEBC DE ENSE5ANZA","LEVEL_":"CICLO BASICO"}},{"type":"Feature","id":207,"geometry":{"type":"Point","coordinates":[-91.7245000004519,14.5927999999251]},"properties":{"FID":207,"NAME":"INSTITUTO 'TECNICO INDUSTRIAL'","LEVEL_":"CICLO DIVERSIFICADO"}},{"type":"Feature","id":208,"geometry":{"type":"Point","coordinates":[-91.7245000004519,14.5927999999251]},"properties":{"FID":208,"NAME":"INEB EXPERIMENTAL CON ORIENTACION OCUPACIONAL","LEVEL_":"CICLO BASICO"}},{"type":"Feature","id":209,"geometry":{"type":"Point","coordinates":[-91.8074000002294,14.6960000001652]},"properties":{"FID":209,"NAME":"IEBC","LEVEL_":"CICLO BASICO"}},{"type":"Feature","id":210,"geometry":{"type":"Point","coordinates":[-91.7325999997762,14.9623000002699]},"properties":{"FID":210,"NAME":"INSTITUTO NACIONAL EXPERIMENTAL DE EDUCACION BASICA CON ORIENTACION OCUPACIONAL 'PROFESORA MARIA CRISTINA BARRIOS'","LEVEL_":"CICLO BASICO"}},{"type":"Feature","id":211,"geometry":{"type":"Point","coordinates":[-91.7154000003081,14.7003999995703]},"properties":{"FID":211,"NAME":"INEB DE TELESECUNDARIA","LEVEL_":"CICLO BASICO"}},{"type":"Feature","id":212,"geometry":{"type":"Point","coordinates":[-90.7853999998903,14.2937999998253]},"properties":{"FID":212,"NAME":"INEBE 'DR.CARLOS SAMAYOA CHINCHILLA'","LEVEL_":"CICLO BASICO"}},{"type":"Feature","id":213,"geometry":{"type":"Point","coordinates":[-91.8112000002378,15.0481999999298]},"properties":{"FID":213,"NAME":"IEBC","LEVEL_":"CICLO BASICO"}},{"type":"Feature","id":214,"geometry":{"type":"Point","coordinates":[-91.8607999997192,14.6982000002581]},"properties":{"FID":214,"NAME":"INEB CON ORIENTACION COMERCIAL  PROF. CLAUDIO LOPEZ MALDONADO","LEVEL_":"CICLO BASICO"}},{"type":"Feature","id":215,"geometry":{"type":"Point","coordinates":[-90.7742999997245,14.2922000004108]},"properties":{"FID":215,"NAME":"IEBC DE ENSE5ANZA 'PROF. MAX PAREDES LIMA'","LEVEL_":"CICLO BASICO"}},{"type":"Feature","id":216,"geometry":{"type":"Point","coordinates":[-91.8356999998189,15.0641000000631]},"properties":{"FID":216,"NAME":"IEBC","LEVEL_":"CICLO BASICO"}},{"type":"Feature","id":217,"geometry":{"type":"Point","coordinates":[-91.869099999764,14.6963999996383]},"properties":{"FID":217,"NAME":"INEB CON ORIENTACION OCUPACIONAL","LEVEL_":"CICLO BASICO"}},{"type":"Feature","id":218,"geometry":{"type":"Point","coordinates":[-91.7892000003939,14.9652999998418]},"properties":{"FID":218,"NAME":"ESCUELA NORMAL DE EDUCACION FISICA","LEVEL_":"CICLO DIVERSIFICADO"}},{"type":"Feature","id":219,"geometry":{"type":"Point","coordinates":[-90.7786000001622,14.3030000002055]},"properties":{"FID":219,"NAME":"IEBC DE ENSE5ANZA","LEVEL_":"CICLO BASICO"}},{"type":"Feature","id":220,"geometry":{"type":"Point","coordinates":[-91.8647999995688,14.7040999997234]},"properties":{"FID":220,"NAME":"ESCUELA NACIONAL DE CIENCIAS COMERCIALES","LEVEL_":"CICLO DIVERSIFICADO"}},{"type":"Feature","id":221,"geometry":{"type":"Point","coordinates":[-91.8837999996653,14.9584999999037]},"properties":{"FID":221,"NAME":"NUCLEO FAMILIAR EDUCATIVO PARA EL DESARROLLO NUFED","LEVEL_":"CICLO BASICO"}},{"type":"Feature","id":222,"geometry":{"type":"Point","coordinates":[-91.998599999745,14.6325000002846]},"properties":{"FID":222,"NAME":"IEBC DE ENSE5ANZA","LEVEL_":"CICLO BASICO"}},{"type":"Feature","id":223,"geometry":{"type":"Point","coordinates":[-91.7768999997984,14.975199999986]},"properties":{"FID":223,"NAME":"INEB CON ORIENTACION OCUPACIONAL","LEVEL_":"CICLO BASICO"}},{"type":"Feature","id":224,"geometry":{"type":"Point","coordinates":[-91.8794999999649,14.6751000000579]},"properties":{"FID":224,"NAME":"IEBC","LEVEL_":"CICLO BASICO"}},{"type":"Feature","id":225,"geometry":{"type":"Point","coordinates":[-91.7334000000979,14.9926999999466]},"properties":{"FID":225,"NAME":"IEBC","LEVEL_":"CICLO BASICO"}},{"type":"Feature","id":226,"geometry":{"type":"Point","coordinates":[-91.869099999764,14.6963999996383]},"properties":{"FID":226,"NAME":"INSTITUTO POR DIVERSIFICADO POR COOPERATIVA DE ENSEAANZA","LEVEL_":"CICLO DIVERSIFICADO"}},{"type":"Feature","id":227,"geometry":{"type":"Point","coordinates":[-90.7859000003161,14.3166999999]},"properties":{"FID":227,"NAME":"IEBC DE ENSE5ANZA","LEVEL_":"CICLO BASICO"}},{"type":"Feature","id":228,"geometry":{"type":"Point","coordinates":[-91.7746999998671,14.9697000001566]},"properties":{"FID":228,"NAME":"ESCUELA NACIONAL DE CIENCIAS COMERCIALES","LEVEL_":"CICLO DIVERSIFICADO"}},{"type":"Feature","id":229,"geometry":{"type":"Point","coordinates":[-91.9271000002192,14.6444999996252]},"properties":{"FID":229,"NAME":"INEB DE TELESECUNDARIA","LEVEL_":"CICLO BASICO"}},{"type":"Feature","id":230,"geometry":{"type":"Point","coordinates":[-91.760499999894,14.9679000000233]},"properties":{"FID":230,"NAME":"IEBC DE ENSE5ANZA","LEVEL_":"CICLO BASICO"}},{"type":"Feature","id":231,"geometry":{"type":"Point","coordinates":[-91.944600000377,14.62660000001]},"properties":{"FID":231,"NAME":"IEBC","LEVEL_":"CICLO BASICO"}},{"type":"Feature","id":232,"geometry":{"type":"Point","coordinates":[-90.7853999998903,14.2937999998253]},"properties":{"FID":232,"NAME":"INSTITUTO NACIONAL PERITO EN MERCADOTECNIA Y ignIDAD JV.","LEVEL_":"CICLO DIVERSIFICADO"}},{"type":"Feature","id":233,"geometry":{"type":"Point","coordinates":[-91.8350999998366,14.6220000001249]},"properties":{"FID":233,"NAME":"IEBC DE ENSE5ANZA","LEVEL_":"CICLO BASICO"}},{"type":"Feature","id":234,"geometry":{"type":"Point","coordinates":[-91.7768999997984,14.975199999986]},"properties":{"FID":234,"NAME":"INSTITUTO TECNICO INDUSTRIAL ADSCRITO AL INEB","LEVEL_":"CICLO DIVERSIFICADO"}},{"type":"Feature","id":235,"geometry":{"type":"Point","coordinates":[-90.7890999997514,14.2997000002333]},"properties":{"FID":235,"NAME":"ESCUELA NACIONAL MIXTA NOCTURNA DE 'CIENCIAS COMERCIALES'","LEVEL_":"CICLO DIVERSIFICADO"}},{"type":"Feature","id":236,"geometry":{"type":"Point","coordinates":[-91.8713999995862,14.5228000000766]},"properties":{"FID":236,"NAME":"INEB DE TELESECUNDARIA","LEVEL_":"CICLO BASICO"}},{"type":"Feature","id":237,"geometry":{"type":"Point","coordinates":[-91.7759000001375,14.997600000039]},"properties":{"FID":237,"NAME":"IEBC","LEVEL_":"CICLO BASICO"}},{"type":"Feature","id":238,"geometry":{"type":"Point","coordinates":[-91.8350999998366,14.6220000001249]},"properties":{"FID":238,"NAME":"COLEGIO PRIVADO MIXTO 'LICEO FLORENSE'","LEVEL_":"CICLO DIVERSIFICADO"}},{"type":"Feature","id":239,"geometry":{"type":"Point","coordinates":[-90.7574999999167,14.2972999999551]},"properties":{"FID":239,"NAME":"IEBC DE ENSE5ANZA 'ALEJANDRO LUNA RICHARDSON'","LEVEL_":"CICLO BASICO"}},{"type":"Feature","id":240,"geometry":{"type":"Point","coordinates":[-91.7713999996679,14.9537000003217]},"properties":{"FID":240,"NAME":"IEBC","LEVEL_":"CICLO BASICO"}},{"type":"Feature","id":241,"geometry":{"type":"Point","coordinates":[-91.8222999996751,14.6400000000754]},"properties":{"FID":241,"NAME":"INEB DE TELESECUNDARIA POR AUTOGESTION","LEVEL_":"CICLO BASICO"}},{"type":"Feature","id":242,"geometry":{"type":"Point","coordinates":[-90.7856999998337,14.301999999615]},"properties":{"FID":242,"NAME":"IPMB  POR MADUREZ 'SUPERACION INTEGRAL'","LEVEL_":"CICLO BASICO"}},{"type":"Feature","id":243,"geometry":{"type":"Point","coordinates":[-91.7294000003241,14.90670000014]},"properties":{"FID":243,"NAME":"INEB DE TELESECUNDARIA","LEVEL_":"CICLO BASICO"}},{"type":"Feature","id":244,"geometry":{"type":"Point","coordinates":[-91.5116000002583,14.530900000134]},"properties":{"FID":244,"NAME":"INEB CON ORIENTACION OCUPACIONAL 'LIC. JULIO CESAR MENDEZ MONTENEGRO'","LEVEL_":"CICLO BASICO"}},{"type":"Feature","id":245,"geometry":{"type":"Point","coordinates":[-91.7808999997626,14.9959000003029]},"properties":{"FID":245,"NAME":"IEBC","LEVEL_":"CICLO BASICO"}},{"type":"Feature","id":246,"geometry":{"type":"Point","coordinates":[-91.5116000002583,14.530900000134]},"properties":{"FID":246,"NAME":"INEB CON ORIENTACION OCUPACIONAL 'LIC. JULIO CESAR MENDEZ MONTENEGRO'","LEVEL_":"CICLO BASICO"}},{"type":"Feature","id":247,"geometry":{"type":"Point","coordinates":[-91.7768999997984,14.975199999986]},"properties":{"FID":247,"NAME":"IEEB CON ORIENTACION OCUPACIONAL","LEVEL_":"CICLO BASICO"}},{"type":"Feature","id":248,"geometry":{"type":"Point","coordinates":[-91.5101000003347,14.5351999998878]},"properties":{"FID":248,"NAME":"INSTITUTO DIV. BACHILLERATO ADSC. AL INSTITUTO 'RAFAEL LANDIVAR'","LEVEL_":"CICLO DIVERSIFICADO"}},{"type":"Feature","id":249,"geometry":{"type":"Point","coordinates":[-90.7856999998337,14.301999999615]},"properties":{"FID":249,"NAME":"INSTITUTO MIXTO PRIVADO DIVERSIFICADO POR MADUREZ 'SUPERACION INTEGRAL'","LEVEL_":"CICLO DIVERSIFICADO"}},{"type":"Feature","id":250,"geometry":{"type":"Point","coordinates":[-91.7325999997762,14.9623000002699]},"properties":{"FID":250,"NAME":"IEBC DE ENSE5ANZA 'LIC. ANGEL G. ARREAGA B.'","LEVEL_":"CICLO BASICO"}},{"type":"Feature","id":251,"geometry":{"type":"Point","coordinates":[-91.5012000003764,14.5303000000229]},"properties":{"FID":251,"NAME":"INSTITUTO TECNICO INDUSTRIAL 'GEORG KERSCHENSTEINER'","LEVEL_":"CICLO DIVERSIFICADO"}},{"type":"Feature","id":252,"geometry":{"type":"Point","coordinates":[-91.7158999996315,14.9410999998915]},"properties":{"FID":252,"NAME":"IEBC DE ENSE5ANZA","LEVEL_":"CICLO BASICO"}},{"type":"Feature","id":253,"geometry":{"type":"Point","coordinates":[-90.7853999998903,14.2937999998253]},"properties":{"FID":253,"NAME":"INSTITUTO DE BACHILLERATO POR MADUREZ","LEVEL_":"CICLO DIVERSIFICADO"}},{"type":"Feature","id":254,"geometry":{"type":"Point","coordinates":[-91.5101000003347,14.5351999998878]},"properties":{"FID":254,"NAME":"COLEGIO PRIVADO MIXTO RAFAEL LANDIVAR","LEVEL_":"CICLO BASICO"}},{"type":"Feature","id":255,"geometry":{"type":"Point","coordinates":[-91.7110999996896,14.95819999961]},"properties":{"FID":255,"NAME":"IEBC","LEVEL_":"CICLO BASICO"}},{"type":"Feature","id":256,"geometry":{"type":"Point","coordinates":[-91.4131999998302,14.5418000000351]},"properties":{"FID":256,"NAME":"ESCUELA NORMAL DE EDUCACION FISICA","LEVEL_":"CICLO DIVERSIFICADO"}},{"type":"Feature","id":257,"geometry":{"type":"Point","coordinates":[-90.7864000001608,14.2963000001545]},"properties":{"FID":257,"NAME":"INSTITUTO POR COOPERATIVA 'LOS NARANJALES' DE EDUCACION BASICA","LEVEL_":"CICLO BASICO"}},{"type":"Feature","id":258,"geometry":{"type":"Point","coordinates":[-91.7290999997605,14.9478999998857]},"properties":{"FID":258,"NAME":"IEBC","LEVEL_":"CICLO BASICO"}},{"type":"Feature","id":259,"geometry":{"type":"Point","coordinates":[-91.514600000231,14.5526999999089]},"properties":{"FID":259,"NAME":"IEBC COLONIA BILBAO","LEVEL_":"CICLO BASICO"}},{"type":"Feature","id":260,"geometry":{"type":"Point","coordinates":[-90.7311999997321,14.2324000001915]},"properties":{"FID":260,"NAME":"INEB DE TELESECUNDARIA","LEVEL_":"CICLO BASICO"}},{"type":"Feature","id":261,"geometry":{"type":"Point","coordinates":[-91.7129000003271,14.9667999996085]},"properties":{"FID":261,"NAME":"IEBC","LEVEL_":"CICLO BASICO"}},{"type":"Feature","id":262,"geometry":{"type":"Point","coordinates":[-91.5579999996231,14.3369999998306]},"properties":{"FID":262,"NAME":"IEBC","LEVEL_":"CICLO BASICO"}},{"type":"Feature","id":263,"geometry":{"type":"Point","coordinates":[-91.7377999996946,15.0936000001482]},"properties":{"FID":263,"NAME":"IEBC","LEVEL_":"CICLO BASICO"}},{"type":"Feature","id":264,"geometry":{"type":"Point","coordinates":[-91.7949999999648,15.0631999996457]},"properties":{"FID":264,"NAME":"IEBC","LEVEL_":"CICLO BASICO"}},{"type":"Feature","id":265,"geometry":{"type":"Point","coordinates":[-91.5809999995346,14.5150999997676]},"properties":{"FID":265,"NAME":"INEB DE TELESECUNDARIA","LEVEL_":"CICLO BASICO"}},{"type":"Feature","id":266,"geometry":{"type":"Point","coordinates":[-90.7706000000039,14.3277999997231]},"properties":{"FID":266,"NAME":"ESCUELA NORMAL DE EDUCACION FISICA","LEVEL_":"CICLO DIVERSIFICADO"}},{"type":"Feature","id":267,"geometry":{"type":"Point","coordinates":[-91.3308000000017,15.1016999997662]},"properties":{"FID":267,"NAME":"IEBC","LEVEL_":"CICLO BASICO"}},{"type":"Feature","id":268,"geometry":{"type":"Point","coordinates":[-91.4217999999023,14.4465999999535]},"properties":{"FID":268,"NAME":"INSTITUTO PRIVADO MIXTO 'SAN JOSE'","LEVEL_":"CICLO BASICO"}},{"type":"Feature","id":269,"geometry":{"type":"Point","coordinates":[-90.7844000001827,14.308500000107]},"properties":{"FID":269,"NAME":"IEBC","LEVEL_":"CICLO BASICO"}},{"type":"Feature","id":270,"geometry":{"type":"Point","coordinates":[-91.7167999998659,15.0582999997513]},"properties":{"FID":270,"NAME":"INEB DE TELESECUNDARIA","LEVEL_":"CICLO BASICO"}},{"type":"Feature","id":271,"geometry":{"type":"Point","coordinates":[-91.4687999998412,14.1757999995537]},"properties":{"FID":271,"NAME":"IEBC","LEVEL_":"CICLO BASICO"}},{"type":"Feature","id":272,"geometry":{"type":"Point","coordinates":[-90.7854000003919,14.3173000002308]},"properties":{"FID":272,"NAME":"ESCUELA NORMAL INTERCULTURAL","LEVEL_":"CICLO DIVERSIFICADO"}},{"type":"Feature","id":273,"geometry":{"type":"Point","coordinates":[-91.7748999995508,15.0910999995611]},"properties":{"FID":273,"NAME":"IEBC 'RIGOBERTA MENCHU'","LEVEL_":"CICLO BASICO"}},{"type":"Feature","id":274,"geometry":{"type":"Point","coordinates":[-91.5343999995657,14.079799999575]},"properties":{"FID":274,"NAME":"IEBC DE ENSE5ANZA","LEVEL_":"CICLO BASICO"}},{"type":"Feature","id":275,"geometry":{"type":"Point","coordinates":[-91.7082999995766,15.0926000001066]},"properties":{"FID":275,"NAME":"INSTITUTO BASICO POR EL SISTEMA DE COOPERATIVA LICEO ESQUIPULAS","LEVEL_":"CICLO BASICO"}},{"type":"Feature","id":276,"geometry":{"type":"Point","coordinates":[-90.7986999999042,14.3217999995756]},"properties":{"FID":276,"NAME":"IEBC","LEVEL_":"CICLO BASICO"}},{"type":"Feature","id":277,"geometry":{"type":"Point","coordinates":[-91.7514999996328,15.0854999996308]},"properties":{"FID":277,"NAME":"INSTITUTO DIVERSIFICADO POR EL SISTEMA DE COOPERATIVA 'LICEO FRATERNIDAD'","LEVEL_":"CICLO DIVERSIFICADO"}},{"type":"Feature","id":278,"geometry":{"type":"Point","coordinates":[-90.7954000000885,14.2840000003103]},"properties":{"FID":278,"NAME":"IEBC","LEVEL_":"CICLO BASICO"}},{"type":"Feature","id":279,"geometry":{"type":"Point","coordinates":[-91.7702000001713,15.1139999999995]},"properties":{"FID":279,"NAME":"IEBC 'SAN JOSE'","LEVEL_":"CICLO BASICO"}},{"type":"Feature","id":280,"geometry":{"type":"Point","coordinates":[-90.7859000003161,14.3166999999]},"properties":{"FID":280,"NAME":"INSTITUTO DE BACHILLERATO EN ELECTRICIDAD DE ESCUINTLA","LEVEL_":"CICLO DIVERSIFICADO"}},{"type":"Feature","id":281,"geometry":{"type":"Point","coordinates":[-91.7557999999012,15.1005999999875]},"properties":{"FID":281,"NAME":"IEBC 'NUEVA ESPERANZA'","LEVEL_":"CICLO BASICO"}},{"type":"Feature","id":282,"geometry":{"type":"Point","coordinates":[-91.7643000001479,15.2445000000558]},"properties":{"FID":282,"NAME":"IEBC 'TWI'CHILIB'","LEVEL_":"CICLO BASICO"}},{"type":"Feature","id":283,"geometry":{"type":"Point","coordinates":[-91.0212999999498,14.3308999998993]},"properties":{"FID":283,"NAME":"INEB CON ORIENTACION COMERCIAL MARIA JOSEFA ROSADO LARA","LEVEL_":"CICLO BASICO"}},{"type":"Feature","id":284,"geometry":{"type":"Point","coordinates":[-91.745800000086,15.2738000003988]},"properties":{"FID":284,"NAME":"INSTITUTO DIVERSIFICADO DE MAGISTERIO BILINGUE POR COOPERATIVA","LEVEL_":"CICLO DIVERSIFICADO"}},{"type":"Feature","id":285,"geometry":{"type":"Point","coordinates":[-91.0190000004135,14.3319999999228]},"properties":{"FID":285,"NAME":"IEBC","LEVEL_":"CICLO BASICO"}},{"type":"Feature","id":286,"geometry":{"type":"Point","coordinates":[-91.7507000000165,15.3033000001826]},"properties":{"FID":286,"NAME":"IEBC","LEVEL_":"CICLO BASICO"}},{"type":"Feature","id":287,"geometry":{"type":"Point","coordinates":[-91.0212999999498,14.3308999998993]},"properties":{"FID":287,"NAME":"ESCUELA NACIONAL DE CIENCIAS COMERCIALES ADSCRITA A INMDEB CON ORIENTACION OCUPACIONAL MARIA JOSEFA ROSADO LARA","LEVEL_":"CICLO DIVERSIFICADO"}},{"type":"Feature","id":288,"geometry":{"type":"Point","coordinates":[-91.744099999898,15.2279000001741]},"properties":{"FID":288,"NAME":"IEBC","LEVEL_":"CICLO BASICO"}},{"type":"Feature","id":289,"geometry":{"type":"Point","coordinates":[-92.0767999996149,15.2407999995833]},"properties":{"FID":289,"NAME":"INSTITUTO DIVERSIFICADO POR COOPERATIVA","LEVEL_":"CICLO DIVERSIFICADO"}},{"type":"Feature","id":290,"geometry":{"type":"Point","coordinates":[-91.1922000004305,14.2220999999257]},"properties":{"FID":290,"NAME":"INEB DE TELESECUNDARIA","LEVEL_":"CICLO BASICO"}},{"type":"Feature","id":291,"geometry":{"type":"Point","coordinates":[-92.0708000003044,15.2352999997924]},"properties":{"FID":291,"NAME":"IEBC DE ENSE5ANZA","LEVEL_":"CICLO BASICO"}},{"type":"Feature","id":292,"geometry":{"type":"Point","coordinates":[-91.0691000001144,14.2316999999482]},"properties":{"FID":292,"NAME":"INEB DE TELESECUNDARIA","LEVEL_":"CICLO BASICO"}},{"type":"Feature","id":293,"geometry":{"type":"Point","coordinates":[-92.0234000001797,15.2102999998286]},"properties":{"FID":293,"NAME":"INEB DE TELESECUNDARIA","LEVEL_":"CICLO BASICO"}},{"type":"Feature","id":294,"geometry":{"type":"Point","coordinates":[-90.9318999997543,14.0919999997737]},"properties":{"FID":294,"NAME":"IEBC","LEVEL_":"CICLO BASICO"}},{"type":"Feature","id":295,"geometry":{"type":"Point","coordinates":[-91.9851999998258,15.2041999997299]},"properties":{"FID":295,"NAME":"IEBC","LEVEL_":"CICLO BASICO"}},{"type":"Feature","id":296,"geometry":{"type":"Point","coordinates":[-92.0583000000071,15.2218999995679]},"properties":{"FID":296,"NAME":"IEBC","LEVEL_":"CICLO BASICO"}},{"type":"Feature","id":297,"geometry":{"type":"Point","coordinates":[-90.9443000002907,14.2300999996106]},"properties":{"FID":297,"NAME":"IEBC DE ENSE5ANZA","LEVEL_":"CICLO BASICO"}},{"type":"Feature","id":298,"geometry":{"type":"Point","coordinates":[-92.0473000000755,15.1490999999886]},"properties":{"FID":298,"NAME":"INEB POR COOPERATIVA","LEVEL_":"CICLO BASICO"}},{"type":"Feature","id":299,"geometry":{"type":"Point","coordinates":[-90.9318999997543,14.0919999997737]},"properties":{"FID":299,"NAME":"INSTITUTO MIXTO DE EDUC. DIVERSIFICADA POR COOPERATIVA","LEVEL_":"CICLO DIVERSIFICADO"}},{"type":"Feature","id":300,"geometry":{"type":"Point","coordinates":[-91.923200000115,15.0837999998241]},"properties":{"FID":300,"NAME":"IEBC","LEVEL_":"CICLO BASICO"}},{"type":"Feature","id":301,"geometry":{"type":"Point","coordinates":[-91.9642000002784,15.0035000003882]},"properties":{"FID":301,"NAME":"IEBC","LEVEL_":"CICLO BASICO"}},{"type":"Feature","id":302,"geometry":{"type":"Point","coordinates":[-90.9014000000365,14.186800000341]},"properties":{"FID":302,"NAME":"INSTITUTO MUNICIPAL DE EDUCACION BASICA DE TELESECUNDARIA","LEVEL_":"CICLO BASICO"}},{"type":"Feature","id":303,"geometry":{"type":"Point","coordinates":[-91.9550999999583,15.0583999997794]},"properties":{"FID":303,"NAME":"IEBC","LEVEL_":"CICLO BASICO"}},{"type":"Feature","id":304,"geometry":{"type":"Point","coordinates":[-90.9236000000106,14.3779000002826]},"properties":{"FID":304,"NAME":"IEBC DE ENSE5ANZA","LEVEL_":"CICLO BASICO"}},{"type":"Feature","id":305,"geometry":{"type":"Point","coordinates":[-91.8723999997277,15.181899999914]},"properties":{"FID":305,"NAME":"IEBC 'SHALANSHAC'","LEVEL_":"CICLO BASICO"}},{"type":"Feature","id":306,"geometry":{"type":"Point","coordinates":[-90.9690000001845,14.3064999997578]},"properties":{"FID":306,"NAME":"IEBC DE ENSE5ANZA","LEVEL_":"CICLO BASICO"}},{"type":"Feature","id":307,"geometry":{"type":"Point","coordinates":[-91.8280000004257,15.0919000001488]},"properties":{"FID":307,"NAME":"INEB DE TELESECUNDARIA","LEVEL_":"CICLO BASICO"}},{"type":"Feature","id":308,"geometry":{"type":"Point","coordinates":[-90.8297999998831,14.0350000003083]},"properties":{"FID":308,"NAME":"IEBC DE ENSE5ANZA","LEVEL_":"CICLO BASICO"}},{"type":"Feature","id":309,"geometry":{"type":"Point","coordinates":[-91.8479999996905,15.1549999997496]},"properties":{"FID":309,"NAME":"IEBC","LEVEL_":"CICLO BASICO"}},{"type":"Feature","id":310,"geometry":{"type":"Point","coordinates":[-91.7960999998127,14.9463999997358]},"properties":{"FID":310,"NAME":"IEBC","LEVEL_":"CICLO BASICO"}},{"type":"Feature","id":311,"geometry":{"type":"Point","coordinates":[-90.8478000002628,14.2018999997627]},"properties":{"FID":311,"NAME":"IEBC DE ENSE5ANZA","LEVEL_":"CICLO BASICO"}},{"type":"Feature","id":312,"geometry":{"type":"Point","coordinates":[-91.8627999999064,15.1601000004202]},"properties":{"FID":312,"NAME":"INEB DE TELESECUNDARIA","LEVEL_":"CICLO BASICO"}},{"type":"Feature","id":313,"geometry":{"type":"Point","coordinates":[-90.8668999996669,14.0909999997232]},"properties":{"FID":313,"NAME":"NUCLEO FAMILIAR EDUCATIVO PARA EL DESARROLLO NUFED N. 5","LEVEL_":"CICLO BASICO"}},{"type":"Feature","id":314,"geometry":{"type":"Point","coordinates":[-91.8465999998177,15.1682000002762]},"properties":{"FID":314,"NAME":"INEB DE TELESECUNDARIA","LEVEL_":"CICLO BASICO"}},{"type":"Feature","id":315,"geometry":{"type":"Point","coordinates":[-91.790100000443,15.170700000426]},"properties":{"FID":315,"NAME":"IEBC","LEVEL_":"CICLO BASICO"}},{"type":"Feature","id":316,"geometry":{"type":"Point","coordinates":[-90.8842000003041,14.1544000000882]},"properties":{"FID":316,"NAME":"INEB DE TELESECUNDARIA","LEVEL_":"CICLO BASICO"}},{"type":"Feature","id":317,"geometry":{"type":"Point","coordinates":[-91.91479999967,14.9299999998065]},"properties":{"FID":317,"NAME":"INSTITUTO NACIONAL MIXTO DE EDUCACION BASICA","LEVEL_":"CICLO BASICO"}},{"type":"Feature","id":318,"geometry":{"type":"Point","coordinates":[-90.7416999996014,14.091200000428]},"properties":{"FID":318,"NAME":"INEB DE TELESECUNDARIA","LEVEL_":"CICLO BASICO"}},{"type":"Feature","id":319,"geometry":{"type":"Point","coordinates":[-91.9281000001167,14.9034999998133]},"properties":{"FID":319,"NAME":"IEBC DE ENSE5ANZA","LEVEL_":"CICLO BASICO"}},{"type":"Feature","id":320,"geometry":{"type":"Point","coordinates":[-91.3643000001735,14.2844999999067]},"properties":{"FID":320,"NAME":"INEB 'LEONIDAS MENCOS AVILA'","LEVEL_":"CICLO BASICO"}},{"type":"Feature","id":321,"geometry":{"type":"Point","coordinates":[-91.9085999995505,14.9443000000388]},"properties":{"FID":321,"NAME":"INEB DE TELESECUNDARIA","LEVEL_":"CICLO BASICO"}},{"type":"Feature","id":322,"geometry":{"type":"Point","coordinates":[-91.91479999967,14.9299999998065]},"properties":{"FID":322,"NAME":"INSTITUTO PRIVADO MIXTO 'MIGUEL ANGEL ASTURIAS'","LEVEL_":"CICLO DIVERSIFICADO"}},{"type":"Feature","id":323,"geometry":{"type":"Point","coordinates":[-91.4420999996457,14.2950000004056]},"properties":{"FID":323,"NAME":"IEBC DE ENSE5ANZA","LEVEL_":"CICLO BASICO"}},{"type":"Feature","id":324,"geometry":{"type":"Point","coordinates":[-91.9195999999949,14.7925000002128]},"properties":{"FID":324,"NAME":"INEB 'BELICE'","LEVEL_":"CICLO BASICO"}},{"type":"Feature","id":325,"geometry":{"type":"Point","coordinates":[-91.9468000004629,14.800600000164]},"properties":{"FID":325,"NAME":"INSTITUTO DE EDUCACION BASICA POR COOPERATIVA DE ENSEEANZA","LEVEL_":"CICLO BASICO"}},{"type":"Feature","id":326,"geometry":{"type":"Point","coordinates":[-91.3617000001392,14.284500000085]},"properties":{"FID":326,"NAME":"INEB CON ORIENTACION COMERCIAL ADSCRITO A ESCUELA NACIONAL DE CIENCIAS COMERCIALES","LEVEL_":"CICLO BASICO"}},{"type":"Feature","id":327,"geometry":{"type":"Point","coordinates":[-91.9327000000417,14.8654000002962]},"properties":{"FID":327,"NAME":"INSTITUTO DE EDUCACION BASICA POR EL SISTEMA DE COOPERATIVA DE ENSE%ANZA 'JOSE MILLA Y VIDAURRE'","LEVEL_":"CICLO BASICO"}},{"type":"Feature","id":328,"geometry":{"type":"Point","coordinates":[-91.3617000001392,14.284500000085]},"properties":{"FID":328,"NAME":"ESCUELA DE CIENCIAS COMERCIALES ADSC. AL INSTITUTO DE EDUCACION BASICA DE TIQUISATE","LEVEL_":"CICLO DIVERSIFICADO"}},{"type":"Feature","id":329,"geometry":{"type":"Point","coordinates":[-92.0198999995418,14.8127999999447]},"properties":{"FID":329,"NAME":"IEBC DE ENSE5ANZA","LEVEL_":"CICLO BASICO"}},{"type":"Feature","id":330,"geometry":{"type":"Point","coordinates":[-91.5169000001737,14.0658999996321]},"properties":{"FID":330,"NAME":"IEBC DE ENSE5ANZA","LEVEL_":"CICLO BASICO"}},{"type":"Feature","id":331,"geometry":{"type":"Point","coordinates":[-91.9797999997322,14.8216999995768]},"properties":{"FID":331,"NAME":"INEB DE TELESECUNDARIA","LEVEL_":"CICLO BASICO"}},{"type":"Feature","id":332,"geometry":{"type":"Point","coordinates":[-91.3254999999,14.260700000289]},"properties":{"FID":332,"NAME":"IEBC DE ENSE5ANZA","LEVEL_":"CICLO BASICO"}},{"type":"Feature","id":333,"geometry":{"type":"Point","coordinates":[-91.9412000002274,14.8965999998153]},"properties":{"FID":333,"NAME":"IEBC","LEVEL_":"CICLO BASICO"}},{"type":"Feature","id":334,"geometry":{"type":"Point","coordinates":[-91.0493999997626,14.0851000001829]},"properties":{"FID":334,"NAME":"IEBC","LEVEL_":"CICLO BASICO"}},{"type":"Feature","id":335,"geometry":{"type":"Point","coordinates":[-91.9753000002165,14.9178000003623]},"properties":{"FID":335,"NAME":"INEB CON ORIENTACION AGRICOLA","LEVEL_":"CICLO BASICO"}},{"type":"Feature","id":336,"geometry":{"type":"Point","coordinates":[-90.9451000002122,14.230499999712]},"properties":{"FID":336,"NAME":"IEBC","LEVEL_":"CICLO BASICO"}},{"type":"Feature","id":337,"geometry":{"type":"Point","coordinates":[-92.0583000000245,14.9124000001569]},"properties":{"FID":337,"NAME":"INEB","LEVEL_":"CICLO BASICO"}},{"type":"Feature","id":338,"geometry":{"type":"Point","coordinates":[-92.1378999999589,14.7949000000412]},"properties":{"FID":338,"NAME":"IEBC","LEVEL_":"CICLO BASICO"}},{"type":"Feature","id":339,"geometry":{"type":"Point","coordinates":[-87.1933829999621,14.1062079998013]},"properties":{"FID":339,"NAME":"TECNICO CULTURA POPULAR","LEVEL_":"MEDIA"}},{"type":"Feature","id":340,"geometry":{"type":"Point","coordinates":[-90.9316999996281,14.0919000001601]},"properties":{"FID":340,"NAME":"INSTITUTO MIXTO DE EDUCACION DIVERSIFICADO POR COOPERATIVA 'ARISTIDES CRESPO VILLEGAS'","LEVEL_":"CICLO DIVERSIFICADO"}},{"type":"Feature","id":341,"geometry":{"type":"Point","coordinates":[-92.1530000002921,14.8276000000359]},"properties":{"FID":341,"NAME":"IEBC","LEVEL_":"CICLO BASICO"}},{"type":"Feature","id":342,"geometry":{"type":"Point","coordinates":[-85.5501749997121,15.0795749998334]},"properties":{"FID":342,"NAME":"6 DE ABRIL","LEVEL_":"MEDIA"}},{"type":"Feature","id":343,"geometry":{"type":"Point","coordinates":[-91.0011999998085,14.0717999999401]},"properties":{"FID":343,"NAME":"INEB DE TELESECUNDARIA","LEVEL_":"CICLO BASICO"}},{"type":"Feature","id":344,"geometry":{"type":"Point","coordinates":[-92.0421999996358,14.8817999996649]},"properties":{"FID":344,"NAME":"IEBC","LEVEL_":"CICLO BASICO"}},{"type":"Feature","id":345,"geometry":{"type":"Point","coordinates":[-86.8083469996089,13.6358689999949]},"properties":{"FID":345,"NAME":"JOSE ANGEL CACERES","LEVEL_":"MEDIA"}},{"type":"Feature","id":346,"geometry":{"type":"Point","coordinates":[-90.6438999997772,14.2263000002513]},"properties":{"FID":346,"NAME":"IEBC DE ENSE5ANZA","LEVEL_":"CICLO BASICO"}},{"type":"Feature","id":347,"geometry":{"type":"Point","coordinates":[-92.0474000002388,14.848800000363]},"properties":{"FID":347,"NAME":"INSTITUTO BASICO POR COOPERATIVA","LEVEL_":"CICLO BASICO"}},{"type":"Feature","id":348,"geometry":{"type":"Point","coordinates":[-90.5807000004298,14.1899999999472]},"properties":{"FID":348,"NAME":"IEBC DE ENSE5ANZA","LEVEL_":"CICLO BASICO"}},{"type":"Feature","id":349,"geometry":{"type":"Point","coordinates":[-87.2841689996365,14.6757570001812]},"properties":{"FID":349,"NAME":"INSTITUTO TAIWAN","LEVEL_":"MEDIA"}},{"type":"Feature","id":350,"geometry":{"type":"Point","coordinates":[-90.6640000004411,14.1424000001843]},"properties":{"FID":350,"NAME":"IPMB ELOHIM","LEVEL_":"CICLO BASICO"}},{"type":"Feature","id":351,"geometry":{"type":"Point","coordinates":[-92.1349000000098,14.6811000004019]},"properties":{"FID":351,"NAME":"IEBC DE ENSE5ANZA","LEVEL_":"CICLO BASICO"}},{"type":"Feature","id":352,"geometry":{"type":"Point","coordinates":[-90.6441999997878,14.2255999999129]},"properties":{"FID":352,"NAME":"INSTITUTO MIXTO 'MIGUEL DE CERVANTES'","LEVEL_":"CICLO BASICO"}},{"type":"Feature","id":353,"geometry":{"type":"Point","coordinates":[-86.9748609999696,13.3683600004362]},"properties":{"FID":353,"NAME":"NIMIA BAQUEDANO","LEVEL_":"MEDIA"}},{"type":"Feature","id":354,"geometry":{"type":"Point","coordinates":[-90.824400000171,13.9237000002965]},"properties":{"FID":354,"NAME":"IEBC DE ENSE5ANZA","LEVEL_":"CICLO BASICO"}},{"type":"Feature","id":355,"geometry":{"type":"Point","coordinates":[-86.303734000161,14.085794999823]},"properties":{"FID":355,"NAME":"IGNACIO A. RODRIGUEZ ESPINOZA","LEVEL_":"MEDIA"}},{"type":"Feature","id":356,"geometry":{"type":"Point","coordinates":[-90.9530999995777,13.9555999996289]},"properties":{"FID":356,"NAME":"IEBC DE ENSE5ANZA","LEVEL_":"CICLO BASICO"}},{"type":"Feature","id":357,"geometry":{"type":"Point","coordinates":[-87.0317599995448,13.2884059998697]},"properties":{"FID":357,"NAME":"FERMIN MAYORGA","LEVEL_":"MEDIA"}},{"type":"Feature","id":358,"geometry":{"type":"Point","coordinates":[-85.9359430000224,14.7779790003422]},"properties":{"FID":358,"NAME":"JOSE CECILIO DEL VALLE","LEVEL_":"MEDIA"}},{"type":"Feature","id":359,"geometry":{"type":"Point","coordinates":[-90.6815999999538,14.001900000311]},"properties":{"FID":359,"NAME":"IEBC DE ENSE5ANZA","LEVEL_":"CICLO BASICO"}},{"type":"Feature","id":360,"geometry":{"type":"Point","coordinates":[-87.0271150001781,14.0161629996391]},"properties":{"FID":360,"NAME":"INSTITUTO SAN ANTONIO DE ORIENTE","LEVEL_":"MEDIA"}},{"type":"Feature","id":361,"geometry":{"type":"Point","coordinates":[-90.7054000002191,13.9322000003023]},"properties":{"FID":361,"NAME":"IEBC","LEVEL_":"CICLO BASICO"}},{"type":"Feature","id":362,"geometry":{"type":"Point","coordinates":[-90.7073999995663,14.3948000000329]},"properties":{"FID":362,"NAME":"IEBC 'SAN ESTEBAN'","LEVEL_":"CICLO BASICO"}},{"type":"Feature","id":363,"geometry":{"type":"Point","coordinates":[-88.054253000051,15.4021610000509]},"properties":{"FID":363,"NAME":"UNIDAD Y CAMBIO","LEVEL_":"MEDIA"}},{"type":"Feature","id":364,"geometry":{"type":"Point","coordinates":[-90.649599999949,14.4385999995901]},"properties":{"FID":364,"NAME":"INEB DE TELESECUNDARIA","LEVEL_":"CICLO BASICO"}},{"type":"Feature","id":365,"geometry":{"type":"Point","coordinates":[-88.3430110000355,14.7737040000704]},"properties":{"FID":365,"NAME":"INST. POLIV. HECTOR RAMON TROCHEZ","LEVEL_":"MEDIA"}},{"type":"Feature","id":366,"geometry":{"type":"Point","coordinates":[-90.6348999998765,14.4151000002149]},"properties":{"FID":366,"NAME":"IEBC PROFESOR OSCAR MARGARITO RONQUILLO PINEDA","LEVEL_":"CICLO BASICO"}},{"type":"Feature","id":367,"geometry":{"type":"Point","coordinates":[-90.6348999998765,14.4151000002149]},"properties":{"FID":367,"NAME":"INSTITUTO DE ENSE ANZA DIVERSIFICADA POR COOPERATIVA LIC.EVERARDO ANTONIO GODOY DAVILA","LEVEL_":"CICLO DIVERSIFICADO"}},{"type":"Feature","id":368,"geometry":{"type":"Point","coordinates":[-87.8889069997755,15.1689269995556]},"properties":{"FID":368,"NAME":"CULTURA MAYA","LEVEL_":"MEDIA"}},{"type":"Feature","id":369,"geometry":{"type":"Point","coordinates":[-87.9615629995819,14.6918859998986]},"properties":{"FID":369,"NAME":"LIBERACION","LEVEL_":"MEDIA"}},{"type":"Feature","id":370,"geometry":{"type":"Point","coordinates":[-90.6348999998765,14.4151000002149]},"properties":{"FID":370,"NAME":"COLEGIO INTEGRAL VICENTINO","LEVEL_":"CICLO DIVERSIFICADO"}},{"type":"Feature","id":371,"geometry":{"type":"Point","coordinates":[-88.9881490000532,15.0253540003953]},"properties":{"FID":371,"NAME":"PARAISO OCCIDENTAL","LEVEL_":"MEDIA"}},{"type":"Feature","id":372,"geometry":{"type":"Point","coordinates":[-91.0528999998673,14.098700000284]},"properties":{"FID":372,"NAME":"IEBC DE ENSE5ANZA 'SIMON BOLIVAR'","LEVEL_":"CICLO BASICO"}},{"type":"Feature","id":373,"geometry":{"type":"Point","coordinates":[-86.5551950002991,13.8753370000251]},"properties":{"FID":373,"NAME":"INSTITUTO TECNICO ALEJANDRO FLORES","LEVEL_":"MEDIA"}},{"type":"Feature","id":374,"geometry":{"type":"Point","coordinates":[-91.0528999998673,14.098700000284]},"properties":{"FID":374,"NAME":"IEBC","LEVEL_":"CICLO BASICO"}},{"type":"Feature","id":375,"geometry":{"type":"Point","coordinates":[-91.2355999998777,14.1712999997711]},"properties":{"FID":375,"NAME":"IEBC","LEVEL_":"CICLO BASICO"}},{"type":"Feature","id":376,"geometry":{"type":"Point","coordinates":[-86.5536850004526,13.8616089995896]},"properties":{"FID":376,"NAME":"PROFESOR ARMANDO MARTINEZ","LEVEL_":"MEDIA"}},{"type":"Feature","id":377,"geometry":{"type":"Point","coordinates":[-91.2357000002702,14.1713000001761]},"properties":{"FID":377,"NAME":"IEBC","LEVEL_":"CICLO BASICO"}},{"type":"Feature","id":378,"geometry":{"type":"Point","coordinates":[-86.5544290000465,13.8744129996687]},"properties":{"FID":378,"NAME":"INSTITUTO HONDUREO DE EDUCACION POR RADIO (IHER EL PARAISO)","LEVEL_":"MEDIA"}},{"type":"Feature","id":379,"geometry":{"type":"Point","coordinates":[-90.2982000004374,14.2795000003795]},"properties":{"FID":379,"NAME":"INEBE CON ORIENTACION OCUPACIONAL DR. JUAN JOSE AREVALO BERMEJO","LEVEL_":"CICLO BASICO"}},{"type":"Feature","id":380,"geometry":{"type":"Point","coordinates":[-86.9124170002386,15.7098950004022]},"properties":{"FID":380,"NAME":"RAFAEL PINEDA PONCE","LEVEL_":"MEDIA"}},{"type":"Feature","id":381,"geometry":{"type":"Point","coordinates":[-86.708703000297,15.683582999872]},"properties":{"FID":381,"NAME":"ELVIRA PINEDA MADRID","LEVEL_":"MEDIA"}},{"type":"Feature","id":382,"geometry":{"type":"Point","coordinates":[-90.2912999997134,14.271200000031]},"properties":{"FID":382,"NAME":"ESCUELA NACIONAL DE CIENCIAS COMERCIALES 'PROF. JORGE HUGO BARILLAS MENDEZ'","LEVEL_":"CICLO DIVERSIFICADO"}},{"type":"Feature","id":383,"geometry":{"type":"Point","coordinates":[-87.9413840000303,15.330336999899]},"properties":{"FID":383,"NAME":"JOSE MANUEL ARRIAGA","LEVEL_":"MEDIA"}},{"type":"Feature","id":384,"geometry":{"type":"Point","coordinates":[-90.2962999997318,14.2729999995628]},"properties":{"FID":384,"NAME":"INSTITUTO GUATEMALTECO DE EDUCACION RADIOFONICA (IGER)","LEVEL_":"CICLO DIVERSIFICADO"}},{"type":"Feature","id":385,"geometry":{"type":"Point","coordinates":[-90.2912999997134,14.271200000031]},"properties":{"FID":385,"NAME":"ESCUELA NORMAL INTERCULTURAL","LEVEL_":"CICLO DIVERSIFICADO"}},{"type":"Feature","id":386,"geometry":{"type":"Point","coordinates":[-87.1843010001273,14.7569590001138]},"properties":{"FID":386,"NAME":"TECNICO JAPON GONZALO BARAHONA","LEVEL_":"MEDIA"}},{"type":"Feature","id":387,"geometry":{"type":"Point","coordinates":[-87.1176040002007,14.6963529997731]},"properties":{"FID":387,"NAME":"REPUBLICA DE HOLANDA","LEVEL_":"MEDIA"}},{"type":"Feature","id":388,"geometry":{"type":"Point","coordinates":[-90.3554000001287,14.3034000002715]},"properties":{"FID":388,"NAME":"INEB","LEVEL_":"CICLO BASICO"}},{"type":"Feature","id":389,"geometry":{"type":"Point","coordinates":[-86.8943870002125,15.7440970003091]},"properties":{"FID":389,"NAME":"EL PORVENIR","LEVEL_":"MEDIA"}},{"type":"Feature","id":390,"geometry":{"type":"Point","coordinates":[-90.3445000002623,14.3401999999571]},"properties":{"FID":390,"NAME":"IEBC DE ENSENANZA","LEVEL_":"CICLO BASICO"}},{"type":"Feature","id":391,"geometry":{"type":"Point","coordinates":[-90.1801000003302,14.2339999999329]},"properties":{"FID":391,"NAME":"INEB","LEVEL_":"CICLO BASICO"}},{"type":"Feature","id":392,"geometry":{"type":"Point","coordinates":[-87.8952740000838,15.3711000000685]},"properties":{"FID":392,"NAME":"RAFAEL PINEDA PONCE","LEVEL_":"MEDIA"}},{"type":"Feature","id":393,"geometry":{"type":"Point","coordinates":[-90.2670999995736,14.0804000000052]},"properties":{"FID":393,"NAME":"IEBC DE ENSE5ANZA","LEVEL_":"CICLO BASICO"}},{"type":"Feature","id":394,"geometry":{"type":"Point","coordinates":[-87.7252219997677,14.5819850001206]},"properties":{"FID":394,"NAME":"OPOTECA","LEVEL_":"MEDIA"}},{"type":"Feature","id":395,"geometry":{"type":"Point","coordinates":[-86.7012660003388,14.9011739996377]},"properties":{"FID":395,"NAME":"INSTITUTO CARLOS ROBERTO FLORES","LEVEL_":"MEDIA"}},{"type":"Feature","id":396,"geometry":{"type":"Point","coordinates":[-90.2670999995736,14.0804000000052]},"properties":{"FID":396,"NAME":"INSTITUTO DIVERSIFICADO POR COOPERATIVA DE ENSECANZA","LEVEL_":"CICLO DIVERSIFICADO"}},{"type":"Feature","id":397,"geometry":{"type":"Point","coordinates":[-90.3786999999782,14.0781999997266]},"properties":{"FID":397,"NAME":"INEB CON ORIENTACION AGROPECUARIA 'LIC. MARIO MENDEZ MONTENEGRO'","LEVEL_":"CICLO BASICO"}},{"type":"Feature","id":398,"geometry":{"type":"Point","coordinates":[-87.2135510002655,14.5271179997356]},"properties":{"FID":398,"NAME":"CARLOS ROBERTO REINA","LEVEL_":"MEDIA"}},{"type":"Feature","id":399,"geometry":{"type":"Point","coordinates":[-90.2556000002476,13.8905000000565]},"properties":{"FID":399,"NAME":"IEBC DE ENSE5ANZA","LEVEL_":"CICLO BASICO"}},{"type":"Feature","id":400,"geometry":{"type":"Point","coordinates":[-86.9858570003008,13.112989999979]},"properties":{"FID":400,"NAME":"INSTITUTO HONDUREO DE EDUCACION POR RADIO","LEVEL_":"MEDIA"}},{"type":"Feature","id":401,"geometry":{"type":"Point","coordinates":[-86.9886990003585,13.1103769997272]},"properties":{"FID":401,"NAME":"EL TRIUNFO","LEVEL_":"MEDIA"}},{"type":"Feature","id":402,"geometry":{"type":"Point","coordinates":[-86.2695090000667,15.5466839996656]},"properties":{"FID":402,"NAME":"RAUL MEDRANO GUTIERREZ","LEVEL_":"MEDIA"}},{"type":"Feature","id":403,"geometry":{"type":"Point","coordinates":[-90.3433999995927,14.1613999997016]},"properties":{"FID":403,"NAME":"IEBC DE ENSE5ANZA","LEVEL_":"CICLO BASICO"}},{"type":"Feature","id":404,"geometry":{"type":"Point","coordinates":[-90.3853000001767,14.0389999998508]},"properties":{"FID":404,"NAME":"INEB DE TELESECUNDARIA","LEVEL_":"CICLO BASICO"}},{"type":"Feature","id":405,"geometry":{"type":"Point","coordinates":[-88.4646990004017,14.2338469997702]},"properties":{"FID":405,"NAME":"LEMPIRA","LEVEL_":"MEDIA"}},{"type":"Feature","id":406,"geometry":{"type":"Point","coordinates":[-87.1754369999555,15.7440790002752]},"properties":{"FID":406,"NAME":"JACOBO P. MUNGUIA","LEVEL_":"MEDIA"}},{"type":"Feature","id":407,"geometry":{"type":"Point","coordinates":[-90.3786999999782,14.0781999997266]},"properties":{"FID":407,"NAME":"INSTITUTO DIVERSIFICADO POR COOPERATIVA DE ENSETANZA","LEVEL_":"CICLO DIVERSIFICADO"}},{"type":"Feature","id":408,"geometry":{"type":"Point","coordinates":[-87.3698699999277,14.7380390002627]},"properties":{"FID":408,"NAME":"ALEJANDRO ALFARO ARRIAGA","LEVEL_":"MEDIA"}},{"type":"Feature","id":409,"geometry":{"type":"Point","coordinates":[-90.462200000402,14.0664999998169]},"properties":{"FID":409,"NAME":"IEBC DE ENSE5ANZA","LEVEL_":"CICLO BASICO"}},{"type":"Feature","id":410,"geometry":{"type":"Point","coordinates":[-88.8359599999195,15.0270860003346]},"properties":{"FID":410,"NAME":"JUVENTUD OCCIDENTAL","LEVEL_":"MEDIA"}},{"type":"Feature","id":411,"geometry":{"type":"Point","coordinates":[-90.462400000448,14.0684000003636]},"properties":{"FID":411,"NAME":"INSTITUTO MIXTO DE EDUCACION DIVERSIFICADA POR COOPERATIVA","LEVEL_":"CICLO DIVERSIFICADO"}},{"type":"Feature","id":412,"geometry":{"type":"Point","coordinates":[-85.8924859999819,14.3454509998997]},"properties":{"FID":412,"NAME":"INSTITUTO SALATIEL ROSALES","LEVEL_":"MEDIA"}},{"type":"Feature","id":413,"geometry":{"type":"Point","coordinates":[-90.4695000003127,13.9196999998877]},"properties":{"FID":413,"NAME":"INSTITUTO MIXTO DE EDUCACION BASICA POR COOPERATIVA","LEVEL_":"CICLO BASICO"}},{"type":"Feature","id":414,"geometry":{"type":"Point","coordinates":[-87.1986699999936,14.0172760004407]},"properties":{"FID":414,"NAME":"GERMANIA","LEVEL_":"MEDIA"}},{"type":"Feature","id":415,"geometry":{"type":"Point","coordinates":[-90.4118999998256,14.0754000004248]},"properties":{"FID":415,"NAME":"ESCUELA NORMAL DE EDUCACION FISICA 'LIC. ARISTIDES BALDOMERO CRESPO VILLEGAS'","LEVEL_":"CICLO DIVERSIFICADO"}},{"type":"Feature","id":416,"geometry":{"type":"Point","coordinates":[-88.5895759999977,14.588576999611]},"properties":{"FID":416,"NAME":"ESC. NORMAL MIXTA JUSTICIA Y LIBERTAD","LEVEL_":"MEDIA"}},{"type":"Feature","id":417,"geometry":{"type":"Point","coordinates":[-90.2896000001815,14.3737999998111]},"properties":{"FID":417,"NAME":"INEB CON ORIENTACION AGROPECUARIA","LEVEL_":"CICLO BASICO"}},{"type":"Feature","id":418,"geometry":{"type":"Point","coordinates":[-86.0786519997014,14.8145019997489]},"properties":{"FID":418,"NAME":"POLIVALENTE SAN JERONIMO","LEVEL_":"MEDIA"}},{"type":"Feature","id":419,"geometry":{"type":"Point","coordinates":[-91.2291000004416,14.8191000002012]},"properties":{"FID":419,"NAME":"IEBC","LEVEL_":"CICLO BASICO"}},{"type":"Feature","id":420,"geometry":{"type":"Point","coordinates":[-86.8312110001488,14.5315400003148]},"properties":{"FID":420,"NAME":"INSTITUTO HONDUREO DE EDUCACION POR RADIO","LEVEL_":"MEDIA"}},{"type":"Feature","id":421,"geometry":{"type":"Point","coordinates":[-91.1839999998927,14.7684999998843]},"properties":{"FID":421,"NAME":"INEB CON ORIENTACION INDUSTRIAL 'ABRAHAM LINCOLN'","LEVEL_":"CICLO BASICO"}},{"type":"Feature","id":422,"geometry":{"type":"Point","coordinates":[-86.8266760001644,14.5506319996779]},"properties":{"FID":422,"NAME":"INSTITUTO POLIVALENTE JOSE DE LA ROSA RODRIGUEZ","LEVEL_":"MEDIA"}},{"type":"Feature","id":423,"geometry":{"type":"Point","coordinates":[-91.1839999998927,14.7684999998843]},"properties":{"FID":423,"NAME":"INEB","LEVEL_":"CICLO BASICO"}},{"type":"Feature","id":424,"geometry":{"type":"Point","coordinates":[-87.9168940003712,15.3359370002137]},"properties":{"FID":424,"NAME":"TEHUMA","LEVEL_":"MEDIA"}},{"type":"Feature","id":425,"geometry":{"type":"Point","coordinates":[-88.4120709997411,15.2969470002433]},"properties":{"FID":425,"NAME":"LA LIBERTAD","LEVEL_":"MEDIA"}},{"type":"Feature","id":426,"geometry":{"type":"Point","coordinates":[-86.8164930002418,14.5358869996651]},"properties":{"FID":426,"NAME":"CENTRO MARIE POUSSEPIN","LEVEL_":"MEDIA"}},{"type":"Feature","id":427,"geometry":{"type":"Point","coordinates":[-91.1839999998927,14.7684999998843]},"properties":{"FID":427,"NAME":"ESCUELA DE NACIONAL DE CIENCIAS COMERCIALES","LEVEL_":"CICLO DIVERSIFICADO"}},{"type":"Feature","id":428,"geometry":{"type":"Point","coordinates":[-91.1687999995403,14.762600000055]},"properties":{"FID":428,"NAME":"ESCUELA DE FORMACION AGRICOLA","LEVEL_":"CICLO BASICO"}},{"type":"Feature","id":429,"geometry":{"type":"Point","coordinates":[-87.8296309997251,14.1188609998988]},"properties":{"FID":429,"NAME":"SUPERACION","LEVEL_":"MEDIA"}},{"type":"Feature","id":430,"geometry":{"type":"Point","coordinates":[-88.953259999943,14.403297999805]},"properties":{"FID":430,"NAME":"SAN MARCOS","LEVEL_":"MEDIA"}},{"type":"Feature","id":431,"geometry":{"type":"Point","coordinates":[-86.8065119999945,13.4346490000488]},"properties":{"FID":431,"NAME":"INSTITUTO DEPARTAMENTAL LEMPIRA","LEVEL_":"MEDIA"}},{"type":"Feature","id":432,"geometry":{"type":"Point","coordinates":[-86.064520000378,15.0256970003092]},"properties":{"FID":432,"NAME":"DR. FRANCISCO BERTRAND","LEVEL_":"MEDIA"}},{"type":"Feature","id":433,"geometry":{"type":"Point","coordinates":[-91.1859999998298,14.776899999798]},"properties":{"FID":433,"NAME":"ESCUELA NORMAL DE EDUCACION FISICA","LEVEL_":"CICLO DIVERSIFICADO"}},{"type":"Feature","id":434,"geometry":{"type":"Point","coordinates":[-91.2161000000463,14.7713999997584]},"properties":{"FID":434,"NAME":"IEBC 'SAN JOSE'","LEVEL_":"CICLO BASICO"}},{"type":"Feature","id":435,"geometry":{"type":"Point","coordinates":[-88.8198200003721,14.1905490004167]},"properties":{"FID":435,"NAME":"POLIV.DAVID H. NAVARRO","LEVEL_":"MEDIA"}},{"type":"Feature","id":436,"geometry":{"type":"Point","coordinates":[-88.2543180000047,14.1179719996854]},"properties":{"FID":436,"NAME":"ING. DAGOBERTO NAPOLEON SO","LEVEL_":"MEDIA"}},{"type":"Feature","id":437,"geometry":{"type":"Point","coordinates":[-91.2643000003237,14.7723000000912]},"properties":{"FID":437,"NAME":"INEB 'FERNANDO SALOMON VASQUEZ RIVERA'","LEVEL_":"CICLO BASICO"}},{"type":"Feature","id":438,"geometry":{"type":"Point","coordinates":[-91.2553000003107,14.7906999996082]},"properties":{"FID":438,"NAME":"INEB BILINGUE ADSCRITO A ESCUELA NORMAL REGIONAL DE OCCIDENTE","LEVEL_":"CICLO BASICO"}},{"type":"Feature","id":439,"geometry":{"type":"Point","coordinates":[-86.6288899999357,13.9755080000967]},"properties":{"FID":439,"NAME":"INSTITUTO SAN MATIAS","LEVEL_":"MEDIA"}},{"type":"Feature","id":440,"geometry":{"type":"Point","coordinates":[-86.8604819999561,14.786320999708]},"properties":{"FID":440,"NAME":"MODESTO RODAS ALVARADO","LEVEL_":"MEDIA"}},{"type":"Feature","id":441,"geometry":{"type":"Point","coordinates":[-87.4967359999384,13.7410740002954]},"properties":{"FID":441,"NAME":"INST CARLOS ROBERTO FLORES","LEVEL_":"MEDIA"}},{"type":"Feature","id":442,"geometry":{"type":"Point","coordinates":[-91.2895999997784,14.7711000001473]},"properties":{"FID":442,"NAME":"INEB DE TELESECUNDARIA","LEVEL_":"CICLO BASICO"}},{"type":"Feature","id":443,"geometry":{"type":"Point","coordinates":[-86.9358329999074,13.8819900000271]},"properties":{"FID":443,"NAME":"GUINOPE","LEVEL_":"MEDIA"}},{"type":"Feature","id":444,"geometry":{"type":"Point","coordinates":[-88.3582799995785,14.3487030000412]},"properties":{"FID":444,"NAME":"INSTITUTO RAFAEL PINEDA PONCE","LEVEL_":"MEDIA"}},{"type":"Feature","id":445,"geometry":{"type":"Point","coordinates":[-91.4239000001234,14.7547999998818]},"properties":{"FID":445,"NAME":"IEBC","LEVEL_":"CICLO BASICO"}},{"type":"Feature","id":446,"geometry":{"type":"Point","coordinates":[-88.0402049998243,14.7951099998035]},"properties":{"FID":446,"NAME":"TECNICO AMISTAD INTERNACIONAL","LEVEL_":"MEDIA"}},{"type":"Feature","id":447,"geometry":{"type":"Point","coordinates":[-88.3300299995454,14.9463560002516]},"properties":{"FID":447,"NAME":"RAFAEL PINEDA PONCE","LEVEL_":"MEDIA"}},{"type":"Feature","id":448,"geometry":{"type":"Point","coordinates":[-91.4047999995344,14.8068999995882]},"properties":{"FID":448,"NAME":"IEBC","LEVEL_":"CICLO BASICO"}},{"type":"Feature","id":449,"geometry":{"type":"Point","coordinates":[-88.2239259996636,15.0650950001277]},"properties":{"FID":449,"NAME":"PASCUAL FAJARDO FERNANDEZ","LEVEL_":"MEDIA"}},{"type":"Feature","id":450,"geometry":{"type":"Point","coordinates":[-91.310800000312,14.8329000000565]},"properties":{"FID":450,"NAME":"INEB DE TELESECUNDARIA","LEVEL_":"CICLO BASICO"}},{"type":"Feature","id":451,"geometry":{"type":"Point","coordinates":[-88.7511590003383,14.9990700003572]},"properties":{"FID":451,"NAME":"INTITUTO HECTOR MEJIA LARA","LEVEL_":"MEDIA"}},{"type":"Feature","id":452,"geometry":{"type":"Point","coordinates":[-91.4427999999646,14.6405000002431]},"properties":{"FID":452,"NAME":"IEBC 'RI AJTIKONEL' 'IMEMBPCA'","LEVEL_":"CICLO BASICO"}},{"type":"Feature","id":453,"geometry":{"type":"Point","coordinates":[-88.8648339995439,14.6160659996799]},"properties":{"FID":453,"NAME":"ARMANDO CALIDONIO ALVARADO","LEVEL_":"MEDIA"}},{"type":"Feature","id":454,"geometry":{"type":"Point","coordinates":[-86.0885179999368,15.7054349998469]},"properties":{"FID":454,"NAME":"MODESTO RODAS ALVARADO","LEVEL_":"MEDIA"}},{"type":"Feature","id":455,"geometry":{"type":"Point","coordinates":[-91.4842000001397,14.6302000001953]},"properties":{"FID":455,"NAME":"IEBC","LEVEL_":"CICLO BASICO"}},{"type":"Feature","id":456,"geometry":{"type":"Point","coordinates":[-85.876203999626,14.7254999996172]},"properties":{"FID":456,"NAME":"RAFAEL PINEDA PONCE","LEVEL_":"MEDIA"}},{"type":"Feature","id":457,"geometry":{"type":"Point","coordinates":[-88.1792199999909,14.3211310000408]},"properties":{"FID":457,"NAME":"CENTRO INDIGENA DE CAPACITACION INTIBUCANA (CICAI-TELEBASICA)","LEVEL_":"MEDIA"}},{"type":"Feature","id":458,"geometry":{"type":"Point","coordinates":[-86.1774979997142,15.6055269999186]},"properties":{"FID":458,"NAME":"FRAY BARTOLOME DE LAS CASA","LEVEL_":"MEDIA"}},{"type":"Feature","id":459,"geometry":{"type":"Point","coordinates":[-87.8579700000437,14.2546289996614]},"properties":{"FID":459,"NAME":"SAN PEDRO","LEVEL_":"MEDIA"}},{"type":"Feature","id":460,"geometry":{"type":"Point","coordinates":[-91.3420999999478,14.8306000001765]},"properties":{"FID":460,"NAME":"IEBC","LEVEL_":"CICLO BASICO"}},{"type":"Feature","id":461,"geometry":{"type":"Point","coordinates":[-86.6668059998084,14.0196970003271]},"properties":{"FID":461,"NAME":"AGROTECNICA DE ORIENTE REYNALDO SALINAS LOPEZ","LEVEL_":"MEDIA"}},{"type":"Feature","id":462,"geometry":{"type":"Point","coordinates":[-91.3571999997956,14.855099999859]},"properties":{"FID":462,"NAME":"IEBC","LEVEL_":"CICLO BASICO"}},{"type":"Feature","id":463,"geometry":{"type":"Point","coordinates":[-88.0300380002187,15.4838020004244]},"properties":{"FID":463,"NAME":"CENTRO TECNICO HONDUREO ALEMAN","LEVEL_":"MEDIA"}},{"type":"Feature","id":464,"geometry":{"type":"Point","coordinates":[-88.0127699998721,15.4350499998145]},"properties":{"FID":464,"NAME":"MODESTO RODAS ALVARADO","LEVEL_":"MEDIA"}},{"type":"Feature","id":465,"geometry":{"type":"Point","coordinates":[-91.3332999996951,14.8273000001612]},"properties":{"FID":465,"NAME":"IEBC","LEVEL_":"CICLO BASICO"}},{"type":"Feature","id":466,"geometry":{"type":"Point","coordinates":[-87.1756109999153,14.4015709999154]},"properties":{"FID":466,"NAME":"AGUSTIN CORDOVA RODRIGUEZ","LEVEL_":"MEDIA"}},{"type":"Feature","id":467,"geometry":{"type":"Point","coordinates":[-91.3858999999001,14.6745999999103]},"properties":{"FID":467,"NAME":"IEBC","LEVEL_":"CICLO BASICO"}},{"type":"Feature","id":468,"geometry":{"type":"Point","coordinates":[-87.9735610002647,15.4686540002876]},"properties":{"FID":468,"NAME":"TECNOLOGICO DE ADMINISTRACION DE EMPRESAS (INTAE)","LEVEL_":"MEDIA"}},{"type":"Feature","id":469,"geometry":{"type":"Point","coordinates":[-87.9861059996118,14.4825520002148]},"properties":{"FID":469,"NAME":"FEDERICO C. CANALES","LEVEL_":"MEDIA"}},{"type":"Feature","id":470,"geometry":{"type":"Point","coordinates":[-88.0124169998466,15.5272650001613]},"properties":{"FID":470,"NAME":"POLIVALENTE LAS BRISAS","LEVEL_":"MEDIA"}},{"type":"Feature","id":471,"geometry":{"type":"Point","coordinates":[-86.3059360000267,16.4156900000975]},"properties":{"FID":471,"NAME":"DEPARTAMENTAL HONDURAS","LEVEL_":"MEDIA"}},{"type":"Feature","id":472,"geometry":{"type":"Point","coordinates":[-91.3677999996109,14.7670000003264]},"properties":{"FID":472,"NAME":"INEB DE TELESECUNDARIA","LEVEL_":"CICLO BASICO"}},{"type":"Feature","id":473,"geometry":{"type":"Point","coordinates":[-88.0060009997066,15.5499020001999]},"properties":{"FID":473,"NAME":"INSTITUTO SEMI OFICIAL PRIMERO DE DICIEMBRE","LEVEL_":"MEDIA"}},{"type":"Feature","id":474,"geometry":{"type":"Point","coordinates":[-86.2132140002005,14.6727810002587]},"properties":{"FID":474,"NAME":"INSTITUTO DEPARTAMENTAL LA FRATERNIDAD","LEVEL_":"MEDIA"}},{"type":"Feature","id":475,"geometry":{"type":"Point","coordinates":[-86.1946179996832,14.6762519999044]},"properties":{"FID":475,"NAME":"ESCUELA NORMAL MIXTA DE OLANCHO","LEVEL_":"MEDIA"}},{"type":"Feature","id":476,"geometry":{"type":"Point","coordinates":[-87.9847099998296,15.4786479997513]},"properties":{"FID":476,"NAME":"JULIO REYES CABALLERO","LEVEL_":"MEDIA"}},{"type":"Feature","id":477,"geometry":{"type":"Point","coordinates":[-92.1030000003579,14.7792999999513]},"properties":{"FID":477,"NAME":"IEBC DE ENSE5ANZA","LEVEL_":"CICLO BASICO"}},{"type":"Feature","id":478,"geometry":{"type":"Point","coordinates":[-87.9441629995813,15.4689169995618]},"properties":{"FID":478,"NAME":"COPANTL","LEVEL_":"MEDIA"}},{"type":"Feature","id":479,"geometry":{"type":"Point","coordinates":[-86.0973479995971,14.7391509995791]},"properties":{"FID":479,"NAME":"INSTITUTO SAN JUAN DE JUTIQUILE","LEVEL_":"MEDIA"}},{"type":"Feature","id":480,"geometry":{"type":"Point","coordinates":[-92.143500000329,14.7093000001469]},"properties":{"FID":480,"NAME":"INEB DE TELESECUNDARIA","LEVEL_":"CICLO BASICO"}},{"type":"Feature","id":481,"geometry":{"type":"Point","coordinates":[-88.0046390003809,15.504541000082]},"properties":{"FID":481,"NAME":"ESCUELA DE MUSICA VICTORIANO LOPEZ","LEVEL_":"MEDIA"}},{"type":"Feature","id":482,"geometry":{"type":"Point","coordinates":[-85.9857730000849,15.7696679996299]},"properties":{"FID":482,"NAME":"OSCAR RAMON NAJERA","LEVEL_":"MEDIA"}},{"type":"Feature","id":483,"geometry":{"type":"Point","coordinates":[-91.961899999664,14.9613000001666]},"properties":{"FID":483,"NAME":"IEBC DE ENSE5ANZA","LEVEL_":"CICLO BASICO"}},{"type":"Feature","id":484,"geometry":{"type":"Point","coordinates":[-91.9409000002179,14.9638000002301]},"properties":{"FID":484,"NAME":"IEBC DE ENSE5ANZA 'PROF. CARLOS ALFONSO BARRIOS DE LEON'","LEVEL_":"CICLO BASICO"}},{"type":"Feature","id":485,"geometry":{"type":"Point","coordinates":[-87.3789810003051,14.0548919998747]},"properties":{"FID":485,"NAME":"INSTITUTO POLIVALENTE ROBERTO MICHELETTI BAIN","LEVEL_":"MEDIA"}},{"type":"Feature","id":486,"geometry":{"type":"Point","coordinates":[-88.1177260003026,14.8010299999302]},"properties":{"FID":486,"NAME":"BRIGIDO BARDALES","LEVEL_":"MEDIA"}},{"type":"Feature","id":487,"geometry":{"type":"Point","coordinates":[-92.0009999998757,14.9614999996877]},"properties":{"FID":487,"NAME":"INSTITUTO MIXTO DE EDUCACION DIVERSIFICADA MUNICIPAL","LEVEL_":"CICLO DIVERSIFICADO"}},{"type":"Feature","id":488,"geometry":{"type":"Point","coordinates":[-88.5947090000032,14.4786160001628]},"properties":{"FID":488,"NAME":"SAN MATIAS","LEVEL_":"MEDIA"}},{"type":"Feature","id":489,"geometry":{"type":"Point","coordinates":[-88.416442000003,14.724455000187]},"properties":{"FID":489,"NAME":"SAN RAFAEL","LEVEL_":"MEDIA"}},{"type":"Feature","id":490,"geometry":{"type":"Point","coordinates":[-91.9524000002134,14.9183000001345]},"properties":{"FID":490,"NAME":"INEB TELESECUNDARIA","LEVEL_":"CICLO BASICO"}},{"type":"Feature","id":491,"geometry":{"type":"Point","coordinates":[-86.8386749997607,15.7468749999861]},"properties":{"FID":491,"NAME":"MARCO H FAJARDO, TECNICO","LEVEL_":"MEDIA"}},{"type":"Feature","id":492,"geometry":{"type":"Point","coordinates":[-88.7378700004026,14.687190000409]},"properties":{"FID":492,"NAME":"SAN RAMON","LEVEL_":"MEDIA"}},{"type":"Feature","id":493,"geometry":{"type":"Point","coordinates":[-87.6401960001921,14.2470949995634]},"properties":{"FID":493,"NAME":"SAN SEBASTIAN","LEVEL_":"MEDIA"}},{"type":"Feature","id":494,"geometry":{"type":"Point","coordinates":[-86.8053159996278,15.7727939996092]},"properties":{"FID":494,"NAME":"LA CEIBA","LEVEL_":"MEDIA"}},{"type":"Feature","id":495,"geometry":{"type":"Point","coordinates":[-91.8495000002546,14.7370000000798]},"properties":{"FID":495,"NAME":"IPMB 'JUSTO RUFINO BARRIOS'","LEVEL_":"CICLO BASICO"}},{"type":"Feature","id":496,"geometry":{"type":"Point","coordinates":[-91.9267999998735,15.1607000000567]},"properties":{"FID":496,"NAME":"IEBC DE ENSE5ANZA","LEVEL_":"CICLO BASICO"}},{"type":"Feature","id":497,"geometry":{"type":"Point","coordinates":[-85.0894539995486,15.9701790003019]},"properties":{"FID":497,"NAME":"SAN PEDRO APOSTOL","LEVEL_":"MEDIA"}},{"type":"Feature","id":498,"geometry":{"type":"Point","coordinates":[-89.0866040002612,14.6664880002076]},"properties":{"FID":498,"NAME":"JOSE RAMON VILLEDA MORALES","LEVEL_":"MEDIA"}},{"type":"Feature","id":499,"geometry":{"type":"Point","coordinates":[-88.7519639998525,15.0647129999112]},"properties":{"FID":499,"NAME":"BERNARDO GALINDO Y GALINDO","LEVEL_":"MEDIA"}},{"type":"Feature","id":500,"geometry":{"type":"Point","coordinates":[-87.0579960001219,15.6418410000741]},"properties":{"FID":500,"NAME":"JOSE ROSARIO BONANO","LEVEL_":"MEDIA"}},{"type":"Feature","id":501,"geometry":{"type":"Point","coordinates":[-91.8867000001566,15.138400000284]},"properties":{"FID":501,"NAME":"IEBC","LEVEL_":"CICLO BASICO"}},{"type":"Feature","id":502,"geometry":{"type":"Point","coordinates":[-91.8526999997529,15.0739999998381]},"properties":{"FID":502,"NAME":"IEBC","LEVEL_":"CICLO BASICO"}},{"type":"Feature","id":503,"geometry":{"type":"Point","coordinates":[-88.2423839999468,14.9348810004149]},"properties":{"FID":503,"NAME":"NORMAL SANTA BARBARA","LEVEL_":"MEDIA"}},{"type":"Feature","id":504,"geometry":{"type":"Point","coordinates":[-88.1717689996075,14.3074809999609]},"properties":{"FID":504,"NAME":"DEPARTAMENTAL DE OCCIDENTE","LEVEL_":"MEDIA"}},{"type":"Feature","id":505,"geometry":{"type":"Point","coordinates":[-88.2335070000139,14.9206380001072]},"properties":{"FID":505,"NAME":"EULOGIO GALEANO TREJO","LEVEL_":"MEDIA"}},{"type":"Feature","id":506,"geometry":{"type":"Point","coordinates":[-91.8533000001485,15.0888000000672]},"properties":{"FID":506,"NAME":"IEBC","LEVEL_":"CICLO BASICO"}},{"type":"Feature","id":507,"geometry":{"type":"Point","coordinates":[-85.7251259997032,15.641511999937]},"properties":{"FID":507,"NAME":"MARCO TULIO CASTILLO SANTOS","LEVEL_":"MEDIA"}},{"type":"Feature","id":508,"geometry":{"type":"Point","coordinates":[-88.2310819997218,14.9294429998921]},"properties":{"FID":508,"NAME":"INSTITUTO TECNICO SANTA BARBARA","LEVEL_":"MEDIA"}},{"type":"Feature","id":509,"geometry":{"type":"Point","coordinates":[-91.9690000000254,15.165800000323]},"properties":{"FID":509,"NAME":"IEBC","LEVEL_":"CICLO BASICO"}},{"type":"Feature","id":510,"geometry":{"type":"Point","coordinates":[-88.1660040000761,14.3076630003776]},"properties":{"FID":510,"NAME":"ESC NORMAL DE OCCIDENTE","LEVEL_":"MEDIA"}},{"type":"Feature","id":511,"geometry":{"type":"Point","coordinates":[-86.6359739996866,13.8678840000964]},